address,price,list_fee,sold_date,sqm,rooms,elevator,patio,new_production,balcony,gardet,kungsholmen,norrmalm,ostermalm,sodermalm,vasastan,latitude,longitude,distance_to_central_station
Settergatan 14,7500000,4312.0,2023-04-12,71.0,3.0,1,0,0,1,1,0,0,0,0,0,59.3595979,18.0951922,4.3 km
Heimdalsgatan 5,14200000,4755.0,2023-04-12,103.0,5.0,1,0,0,1,0,0,0,0,0,1,59.34444,18.0477112,1.6 km
Bellmansgatan 21,10400000,3760.0,2023-04-12,83.0,3.0,0,0,0,1,0,0,0,0,1,0,59.31740860000001,18.0663328,2.0 km
Gumshornsgatan 7,3900000,1975.0,2023-04-12,28.5,1.0,1,0,0,1,0,0,0,1,0,0,59.3362564,18.0891897,2.2 km
Bondegatan 46,2750000,1206.0,2023-04-12,21.0,1.0,1,0,0,1,0,0,0,0,1,0,59.31327179999999,18.0832102,3.0 km
Artillerigatan 72B,6725000,3520.0,2023-04-12,66.0,3.0,1,0,0,1,0,0,0,1,0,0,59.3424337,18.0885739,2.6 km
Grubbensringen 9,5700000,5553.0,2023-04-12,72.0,2.0,1,0,0,0,0,1,0,0,0,0,59.333903,18.0424301,1.2 km
Igeldammsgatan 22 A,7975000,4558.0,2023-04-12,83.0,3.0,1,0,0,0,0,1,0,0,0,0,59.337215,18.0245656,2.3 km
Lilla Västerbron 10,7200000,4284.0,2023-04-12,85.5,3.0,0,0,0,1,0,1,0,0,0,0,59.3311633,18.0231786,2.4 km
Blecktornsstigen 9,8150000,4634.0,2023-04-12,75.0,3.0,0,0,0,0,0,0,0,0,1,0,59.3077079,18.0857204,3.6 km
Fridhemsgatan 55,5200000,1965.0,2023-04-12,43.0,2.0,1,0,0,1,0,1,0,0,0,0,59.33690360000001,18.0320173,2.0 km
Tomtebogatan 3A,5500000,1125.0,2023-04-12,40.0,2.0,1,0,0,1,0,0,0,0,0,1,59.34122259999999,18.036685,1.8 km
Pilgatan 26,8400000,5387.0,2023-04-12,73.0,3.0,1,0,0,1,0,1,0,0,0,0,59.3299154,18.0397826,1.4 km
Sankt eriksgatan 41,2950000,790.0,2023-04-12,27.0,1.0,1,1,0,0,0,1,0,0,0,0,59.33394060000001,18.0317478,1.8 km
Hälsingegatan 6,6000000,1903.0,2023-04-12,54.0,2.0,1,0,0,0,0,0,0,0,0,1,59.34364770000001,18.0418267,1.8 km
Folkungagatan 146 A,10000000,3988.0,2023-04-12,115.0,4.0,1,0,0,1,0,0,0,0,1,0,59.3155101,18.091147,3.1 km
Kungsklippan 12,3600000,2905.0,2023-04-11,36.0,2.0,1,0,0,1,0,1,0,0,0,0,59.33019580000001,18.0484427,0.8 km
Runiusgatan 5,8495000,4554.0,2023-04-11,107.0,4.0,1,0,0,1,0,1,0,0,0,0,59.32981210000001,18.0086768,3.5 km
Tomtebogatan 32,9150000,4606.0,2023-04-11,85.0,3.0,1,0,0,0,0,0,0,0,0,1,59.3418534,18.029545,2.2 km
Hagagatan 11,7000000,3268.0,2023-04-11,69.0,3.0,1,1,0,0,0,0,0,0,0,1,59.3447282,18.0518705,1.8 km
Tegelviksgatan 14,7725000,4748.0,2023-04-11,92.0,4.0,1,0,0,1,0,0,0,0,1,0,59.3115185,18.0984678,3.9 km
Skånegatan 57A,6400000,2431.0,2023-04-11,59.0,2.0,0,0,0,1,0,0,0,0,1,0,59.31248609999999,18.0787793,2.9 km
Robert Almströmsgatan 6,5975000,3780.0,2023-04-11,64.0,3.0,1,0,0,0,0,0,0,0,0,1,59.33878679999999,18.0337349,1.9 km
Grindsgatan 29,7300000,3880.0,2023-04-11,77.0,3.0,1,0,0,0,0,0,0,0,1,0,59.310051,18.0670581,2.9 km
Västmannagatan 30A,6350000,2912.0,2023-04-11,59.0,2.0,0,0,0,1,0,0,0,0,0,1,59.3390591,18.0510371,1.0 km
Erik Dahlbergsgatan 53,4500000,3144.0,2023-04-11,58.0,2.0,1,0,0,1,1,0,0,0,0,0,59.346208,18.0917468,2.8 km
Storgatan 30,5200000,1580.0,2023-04-11,40.0,1.0,1,0,0,1,0,0,0,1,0,0,59.3341714,18.0873012,2.0 km
Strandvägen 11,67000000,6409.0,2023-04-11,239.0,8.0,1,0,0,1,0,0,0,1,0,0,59.33191349999999,18.0816313,1.6 km
Melodislingan 50 - 4 tr!,4900000,3991.0,2023-04-10,41.0,2.0,1,0,0,1,0,0,0,1,0,0,59.3448921,18.0808878,2.2 km
Garvargatan 7,7650000,2866.0,2023-04-10,83.0,3.0,1,0,0,0,0,1,0,0,0,0,59.32797449999999,18.044676,1.2 km
Maria Bangata 2 B,5050000,2492.0,2023-04-10,46.0,2.5,0,0,0,0,0,0,0,0,1,0,59.3142974,18.0552172,2.8 km
John bergs plan 4,3600000,1618.0,2023-04-10,38.0,1.5,1,0,0,1,0,1,0,0,0,0,59.3363816,18.0230598,2.4 km
Lottens gata 6,4325000,2878.0,2023-04-10,45.0,2.0,1,0,0,1,0,0,0,0,1,0,59.3113038,18.0975469,4.0 km
Brännkyrkagatan 92A,3250000,2395.0,2023-04-10,34.0,1.5,0,0,0,0,0,0,0,0,1,0,59.3181535,18.0481447,2.8 km
Tegeluddsvägen 30,3195000,2566.0,2023-04-09,35.0,2.0,1,0,0,1,1,0,0,0,0,0,59.347702,18.1057749,3.9 km
Kungsbro Strand 21,3300000,3149.0,2023-04-08,34.0,1.0,1,0,0,1,0,1,0,0,0,0,59.3307648,18.050355,0.8 km
Drottningholmsvägen 52,5075000,2659.0,2023-04-08,58.0,2.0,1,0,0,1,0,1,0,0,0,0,59.3320319,18.0221642,2.4 km
Skeppargatan 67,7650000,4567.0,2023-04-07,77.5,3.0,1,0,0,1,0,0,0,1,0,0,59.34190470000001,18.0888245,2.5 km
Nackagatan 21,6500000,5137.0,2023-04-07,91.0,3.0,1,0,0,1,0,0,0,0,1,0,59.3107334,18.0989379,4.0 km
Brantingsgatan 18,7750000,3811.0,2023-04-07,70.5,3.5,1,0,0,1,1,0,0,0,0,0,59.3464255,18.0941253,3.0 km
Värtavägen 59,2550000,1266.0,2023-04-07,24.0,1.0,0,0,0,1,1,0,0,0,0,0,59.34752450000001,18.1018719,3.7 km
Frejgatan 36A,4235000,2888.0,2023-04-07,38.0,2.0,1,0,0,1,0,0,0,0,0,1,59.3449011,18.0470879,1.7 km
Pontonjärgatan 45,6350000,4114.0,2023-04-07,64.0,2.0,1,0,0,0,0,1,0,0,0,0,59.32975029999999,18.0280063,2.3 km
Strindbergsgatan 50,5000000,2346.0,2023-04-07,54.0,2.0,1,0,0,0,0,0,0,1,0,0,59.3415623,18.0921932,2.8 km
Erstagatan 22,7440000,4367.0,2023-04-06,74.0,2.5,1,0,0,1,0,0,0,0,1,0,59.3143407,18.0899525,3.2 km
Heleneborgsgatan 7A,6250000,2872.0,2023-04-06,58.0,2.0,1,0,0,1,0,0,0,0,1,0,59.31916379999999,18.0381538,3.2 km
Rutger Fuchsgatan 8B,2950000,1877.0,2023-04-06,33.0,1.0,1,0,0,1,0,0,0,0,1,0,59.30700299999999,18.0781006,3.4 km
Ulriksborgsgatan 9,3520000,2319.0,2023-04-06,40.0,1.5,1,0,0,1,0,1,0,0,0,0,59.33456169999999,18.0177285,2.9 km
Bråvallagatan 10,7150000,2238.0,2023-04-06,67.0,3.0,0,0,0,1,0,0,0,0,0,1,59.3389068,18.0350842,1.8 km
Disponentgatan 1,2620000,2176.0,2023-04-06,30.0,1.0,1,0,0,0,0,1,0,0,0,0,59.3245311,18.0078838,3.8 km
Furusundsgatan 15,3550000,2361.0,2023-04-06,37.0,1.5,1,0,0,1,1,0,0,0,0,0,59.34680299999999,18.0992796,3.5 km
Artillerigatan 89,6210000,2548.0,2023-04-06,66.0,2.0,1,0,0,1,1,0,0,0,0,0,59.3426176,18.0879907,2.5 km
Upplandsgatan 85A,7000000,3309.0,2023-04-06,69.0,2.0,1,0,0,0,0,0,0,0,0,1,59.3458047,18.0451059,1.8 km
Magnus Ladulåsgatan 53,6050000,3650.0,2023-04-06,80.0,3.5,1,0,0,1,0,0,0,0,1,0,59.31251760000001,18.0652223,2.7 km
Olof Palmes gata 14,6850000,3544.0,2023-04-06,76.0,3.0,1,0,0,1,0,0,1,0,0,0,59.33617049999999,18.0606306,0.7 km
Ynglingagatan 19,11250000,4563.0,2023-04-06,100.0,4.0,1,0,0,1,0,0,0,0,0,1,59.34859609999999,18.0462906,2.2 km
Krukmakargatan 33B,7575000,3290.0,2023-04-06,77.0,3.0,1,0,0,1,0,0,0,0,1,0,59.3168665,18.0532079,2.6 km
Jaktvarvsplan 3,6060000,3427.0,2023-04-06,58.5,2.0,1,0,0,0,0,1,0,0,0,0,59.3292133,18.0349974,1.8 km
Borgmästargatan 4A,3400000,2096.0,2023-04-06,33.0,1.0,1,0,0,1,0,0,0,0,1,0,59.3152576,18.0858978,2.9 km
John Ericssonsgatan 7,8000000,4343.0,2023-04-06,84.0,3.5,1,0,0,1,0,1,0,0,0,0,59.32839250000001,18.0368411,1.7 km
Ivan Oljelunds gränd 2,6570000,5647.0,2023-04-06,76.0,3.0,1,1,0,0,0,1,0,0,0,0,59.33424660000001,18.0434186,1.2 km
Essinge Brogata 15,2860000,2196.0,2023-04-06,38.0,2.0,1,0,0,0,0,1,0,0,0,0,59.32490910000001,18.0057031,3.8 km
Kungsklippan 5,5125000,2119.0,2023-04-06,46.0,1.5,1,0,0,0,0,1,0,0,0,0,59.3298046,18.0488542,0.8 km
Bågljusvägen 5,5445000,4012.0,2023-04-06,65.0,2.0,1,0,0,1,0,1,0,0,0,0,59.3338385,18.0233828,2.4 km
Sysslomansgatan 11,4225000,2580.0,2023-04-06,43.0,2.0,1,0,0,1,0,1,0,0,0,0,59.33075160000001,18.0248771,2.4 km
Bondegatan 46,3425000,1836.0,2023-04-06,32.0,1.0,1,0,0,1,0,0,0,0,1,0,59.31327179999999,18.0832102,3.0 km
Blekingegatan 57,3420000,2096.0,2023-04-06,36.0,1.5,1,0,0,0,0,0,0,0,1,0,59.3107098,18.0756952,2.9 km
Västmannagatan 54,5400000,1019.0,2023-04-06,50.0,2.0,1,1,0,0,0,0,0,0,0,1,59.341637,18.0481244,1.3 km
Lilla Västerbron 10,9900000,5014.0,2023-04-06,108.5,4.0,1,0,0,1,0,1,0,0,0,0,59.3311633,18.0231786,2.4 km
Karlbergsvägen 33B,6100000,3007.0,2023-04-06,57.0,2.0,1,0,0,1,0,0,0,0,0,1,59.34223309999999,18.0399971,1.8 km
Lagerlöfsgatan 4,4400000,3027.0,2023-04-06,50.0,2.0,1,0,0,1,0,1,0,0,0,0,59.3297141,18.019374,2.8 km
Gästrikegatan 11A,9000000,3259.0,2023-04-06,72.0,3.0,0,0,0,1,0,0,0,0,0,1,59.3412568,18.0390691,1.7 km
Färgargårdstorget 80,8400000,5333.0,2023-04-06,107.0,4.0,1,0,0,1,0,0,0,0,1,0,59.3085366,18.0937516,4.0 km
Folkungagatan 78,11495000,6532.0,2023-04-06,110.0,4.0,1,0,0,1,0,0,0,0,1,0,59.3146726,18.0786193,2.7 km
Östhammarsgatan 67,3125000,2598.0,2023-04-06,39.5,2.0,0,0,0,0,1,0,0,0,0,0,59.3437107,18.1115983,4.0 km
Karlbergsvägen 35 C,4500000,2070.0,2023-04-05,40.0,1.0,1,0,0,0,0,0,0,0,0,1,59.3421147,18.0398133,1.8 km
Birger Jarlsgatan 93B ,10400000,3718.0,2023-04-05,91.0,4.0,1,0,0,1,0,0,0,0,0,1,59.34707880000001,18.0608566,2.2 km
Birger Jarlsgatan 104K,4430000,2766.0,2023-04-05,43.0,1.5,0,0,0,0,0,0,0,1,0,0,59.347613,18.0628394,2.4 km
Tre Liljor 6,3930000,1797.0,2023-04-05,39.0,1.5,1,0,0,0,0,0,0,0,0,1,59.34745650000001,18.0453067,2.0 km
Karlbergsvägen 66A,10495000,4915.0,2023-04-05,95.7,3.0,0,0,0,1,0,0,0,0,0,1,59.34253700000001,18.0326529,2.1 km
Bastugatan 19,7500000,3125.0,2023-04-05,65.0,2.5,1,0,0,1,0,0,0,0,1,0,59.32020980000001,18.0620998,1.9 km
Pokalvägen 5,7350000,4221.0,2023-04-05,76.5,3.5,1,0,0,1,0,0,0,0,1,0,59.31852549999999,18.0212797,4.2 km
Hantverkargatan 44,8650000,4725.0,2023-04-05,81.0,3.0,1,0,0,1,0,1,0,0,0,0,59.32968839999999,18.0386945,1.5 km
Vikingagatan 7,7650000,3660.0,2023-04-05,71.0,3.0,1,0,0,0,0,0,0,0,0,1,59.34090599999999,18.0325718,2.0 km
Norra Stationsgatan 117,5550000,2952.0,2023-04-05,46.0,2.0,1,0,0,1,0,0,0,0,0,1,59.3438265,18.0285309,2.5 km
Celsiusgatan 8,4305000,2438.0,2023-04-05,43.5,2.0,1,0,0,1,0,1,0,0,0,0,59.3331495,18.0393295,1.4 km
Flintbacken 2,3320000,1832.0,2023-04-05,34.0,2.0,1,0,0,0,0,0,0,0,1,0,59.3106873,18.0501817,3.6 km
Lindhagensgatan 65,3920000,2993.0,2023-04-05,46.5,2.0,0,0,0,0,0,1,0,0,0,0,59.3332419,18.0165057,2.8 km
Högbergsgatan 50,4250000,1160.0,2023-04-05,45.0,2.0,1,0,0,1,0,0,0,0,1,0,59.31591859999999,18.0669287,2.1 km
Ernst Ahlgrens väg 3,3810000,2445.0,2023-04-05,43.0,2.0,0,0,0,1,0,1,0,0,0,0,59.3308262,18.0048693,3.5 km
Artemisgatan 69,3580000,2395.0,2023-04-05,37.0,2.0,0,0,0,1,1,0,0,0,0,0,59.35694909999999,18.0964858,4.3 km
Bergsgatan 3 A,7000000,2715.0,2023-04-05,64.0,2.0,0,0,0,1,0,1,0,0,0,0,59.32921700000001,18.046298,1.0 km
Ölandsgatan 46,4400000,2799.0,2023-04-05,42.0,2.0,1,0,0,1,0,0,0,0,1,0,59.3086095,18.0776095,3.1 km
Timmermansgränd 4,8100000,4373.0,2023-04-05,105.0,4.0,1,0,0,1,0,0,0,0,1,0,59.3126322,18.0628038,2.7 km
Primusgatan 82,4250000,3093.0,2023-04-05,44.5,2.0,1,0,0,1,0,1,0,0,0,0,59.3227523,18.0035496,4.1 km
Scheelegatan 28,9050000,3064.0,2023-04-05,78.0,3.0,1,0,0,0,0,1,0,0,0,0,59.3323745,18.0453475,1.0 km
Åsögatan 167A,6350000,3232.0,2023-04-05,55.0,2.0,0,0,0,1,0,0,0,0,1,0,59.3146667,18.0856365,2.9 km
Högalidsgatan 13B,6550000,3346.0,2023-04-05,66.0,2.5,1,0,0,0,0,0,0,0,1,0,59.3179291,18.0329719,3.5 km
Hornsbergs Strand 85,5670000,3307.0,2023-04-05,65.0,3.0,1,0,0,1,0,1,0,0,0,0,59.3392043,18.0041965,3.7 km
Blanchegatan 18,2950000,1597.0,2023-04-05,25.0,1.0,1,0,0,1,1,0,0,0,0,0,59.3434265,18.0983346,3.2 km
Tomtebogatan 13B,4750000,1801.0,2023-04-05,41.0,1.5,0,0,0,1,0,0,0,0,0,1,59.3409264,18.0342333,2.0 km
Lundagatan 52,3170000,1423.0,2023-04-05,25.0,1.0,0,0,0,1,0,0,0,0,1,0,59.3181957,18.0430302,3.1 km
Ola Hanssonsgatan 4,3215000,2956.0,2023-04-05,37.0,2.0,1,0,0,1,0,1,0,0,0,0,59.33460600000001,18.0011768,3.8 km
Birger Jarlsgatan 115B,5895000,2924.0,2023-04-05,61.0,2.0,1,0,0,1,0,0,0,0,0,1,59.34950660000001,18.0585968,2.5 km
Erik Dahlbergsgatan 41,3050000,1493.0,2023-04-05,27.0,1.0,1,0,0,0,1,0,0,0,0,0,59.344623,18.0927467,2.9 km
Bergsgatan 49,7495000,3875.0,2023-04-05,77.0,3.0,1,0,0,1,0,1,0,0,0,0,59.3305398,18.0374299,1.5 km
Värtavägen 23,7450000,3625.0,2023-04-05,69.0,3.0,1,0,0,1,1,0,0,0,0,0,59.34152880000001,18.0964192,3.0 km
Gävlegatan 26,4075000,2000.0,2023-04-05,40.0,2.0,1,0,0,1,0,0,0,0,0,1,59.34700350000001,18.0339991,2.5 km
Warfvinges Väg 3,4130000,3047.0,2023-04-05,52.0,2.0,1,0,0,1,0,1,0,0,0,0,59.3363585,18.0140603,3.0 km
Hälsingegatan 51,4850000,3163.0,2023-04-05,55.0,2.0,1,0,0,0,0,0,0,0,0,1,59.34776489999999,18.0371689,2.4 km
Pilgatan 19C,8610000,5075.0,2023-04-05,87.0,4.0,1,0,0,1,0,1,0,0,0,0,59.32975109999999,18.0388653,1.5 km
Blekingegatan 36,4050000,2295.0,2023-04-05,45.0,2.0,1,1,0,0,0,0,0,0,1,0,59.3103381,18.0742443,2.9 km
Magnus Ladulåsgatan 29,4450000,2588.0,2023-04-05,55.0,2.5,1,0,0,1,0,0,0,0,1,0,59.31233209999999,18.0633262,2.8 km
Sturegatan 44C,12750000,5225.0,2023-04-05,125.0,3.0,0,0,0,1,0,0,0,1,0,0,59.34104439999999,18.0776167,1.7 km
Gotlandsgatan 69,7425000,3137.0,2023-04-05,68.0,2.0,1,0,0,1,0,0,0,0,1,0,59.3103974,18.080709,3.1 km
Sankt Eriksgatan 85C,3650000,977.0,2023-04-04,35.0,1.0,1,0,0,0,0,0,0,0,0,1,59.3408548,18.0362339,1.9 km
Vegagatan 5,3600000,1693.0,2023-04-04,35.0,1.0,1,0,0,0,0,0,0,0,0,1,59.34132589999999,18.050952,1.2 km
Drakenbergsgatan 19,12550000,5852.0,2023-04-04,128.0,5.0,1,0,0,1,0,0,0,0,1,0,59.3151716,18.0415398,3.3 km
Bondegatan 18,5650000,3484.0,2023-04-04,60.0,2.0,1,0,0,1,0,0,0,0,1,0,59.31276709999999,18.0788227,2.9 km
Wennerbergsgatan 2,6100000,5808.0,2023-04-04,87.0,4.0,1,0,0,1,0,1,0,0,0,0,59.32817319999999,18.0128544,3.2 km
Hjalmar Söderbergs väg 8,7000000,4442.0,2023-04-04,82.0,3.0,1,0,0,1,0,1,0,0,0,0,59.3323642,18.0065692,3.3 km
Surbrunnsgatan 13,8700000,3074.0,2023-04-04,70.0,3.0,0,1,0,0,0,0,0,0,0,1,59.34666490000001,18.0630518,2.2 km
Warfvinges väg 18,6425000,5204.0,2023-04-04,78.5,3.0,1,0,0,1,0,1,0,0,0,0,59.33670859999999,18.0141203,3.0 km
Bergsgatan 31,3755000,1995.0,2023-04-04,36.0,1.5,1,0,0,0,0,1,0,0,0,0,59.3302622,18.0401662,1.3 km
Nybrogatan 38B,4975000,1742.0,2023-04-04,44.0,2.0,0,0,0,0,0,0,0,1,0,0,59.33763820000001,18.0804783,1.7 km
Bredgränd 7,4675000,2726.0,2023-04-04,39.0,1.5,0,0,0,0,0,0,0,0,0,0,59.3255215,18.0741889,1.4 km
Fleminggatan 49,5435000,1739.0,2023-04-04,53.0,2.0,1,0,0,1,0,1,0,0,0,0,59.33356360000001,18.0385067,1.4 km
Sankt Göransgatan 70,3495000,789.0,2023-04-04,38.0,1.0,1,0,0,0,0,1,0,0,0,0,59.333621,18.0309294,1.9 km
Lanforsvägen 43,3275000,3172.0,2023-04-04,44.2,2.0,0,0,0,0,1,0,0,0,0,0,59.35255770000001,18.0931939,4.0 km
Torsgatan 72,2850000,1002.0,2023-04-04,23.0,1.0,1,0,0,0,0,0,0,0,0,1,59.3448366,18.0350068,2.2 km
Sysslomansgatan 8,4195000,2379.0,2023-04-04,48.0,2.0,1,0,0,1,0,1,0,0,0,0,59.3313303,18.0263937,2.3 km
P O Hallmans gata 5,10500000,7007.0,2023-04-04,121.0,5.0,1,0,0,1,0,1,0,0,0,0,59.33523039999999,18.0401822,1.5 km
Långholmsgatan 5,10400000,4492.0,2023-04-04,98.0,4.0,1,0,0,1,0,0,0,0,1,0,59.3177422,18.0329379,3.6 km
Maria prästgårdsgata 19,7725000,5052.0,2023-04-04,74.0,3.0,1,0,0,1,0,0,0,0,1,0,59.3158763,18.0622204,2.3 km
Furusundsgatan 8,3300000,1646.0,2023-04-04,31.0,1.0,1,0,0,1,1,0,0,0,0,0,59.3475462,18.0964689,3.2 km
Sankt Eriksgatan 18,9400000,4347.0,2023-04-04,91.0,3.0,1,0,0,1,0,1,0,0,0,0,59.33073150000001,18.0306529,2.0 km
Bergsundsgatan 14,5400000,4458.0,2023-04-04,50.0,2.0,1,0,0,1,0,0,0,0,1,0,59.31703150000001,18.0286527,3.8 km
Frejgatan 4,7230000,2861.0,2023-04-04,62.0,2.0,1,0,0,1,0,0,0,0,0,1,59.3486156,18.0611202,2.4 km
Dalagatan 102,7100000,3801.0,2023-04-04,77.0,3.0,1,0,0,1,0,0,0,0,0,1,59.34859660000001,18.0391261,2.3 km
Åsögatan 92,4950000,3309.0,2023-04-04,57.0,2.5,1,0,0,1,0,0,0,0,1,0,59.31223679999999,18.0695169,2.7 km
Rådmansgatan 80 A,10850000,5569.0,2023-04-04,107.0,4.0,1,0,0,1,0,0,0,0,0,1,59.33866579999999,18.0514107,0.9 km
Götgatan 92A,4250000,1672.0,2023-04-04,46.0,2.0,1,0,0,0,0,0,0,0,1,0,59.30999809999999,18.074988,2.9 km
Hedemoratäppan 1,3380000,1743.0,2023-04-04,28.0,1.0,0,0,0,0,0,0,0,0,0,1,59.34468709999999,18.0368672,2.3 km
Valhallavägen 61,12650000,6375.0,2023-04-04,152.0,4.0,1,0,0,1,0,0,0,1,0,0,59.34693369999999,18.068325,2.4 km
Valhallavägen 82,14800000,4882.0,2023-04-04,130.0,4.0,1,0,0,1,0,0,0,1,0,0,59.3448863,18.0723995,2.1 km
Norr Mälarstrand 96,12750000,6113.0,2023-04-04,117.0,4.0,1,0,0,1,0,1,0,0,0,0,59.3301344,18.0253471,2.4 km
Högalidsgatan 29,2610000,1646.0,2023-04-04,24.0,1.0,1,0,0,0,0,0,0,0,1,0,59.31832910000001,18.0298177,3.8 km
Älvsborgsgatan 1,4100000,2969.0,2023-04-04,40.0,2.0,1,0,0,1,0,0,0,0,1,0,59.3094109,18.0733275,3.1 km
Södermannagatan 34,9100000,4688.0,2023-04-04,82.0,3.0,1,0,0,0,0,0,0,0,1,0,59.3121731,18.0809268,3.1 km
Tomtebogatan 39A,6000000,3141.0,2023-04-04,60.0,2.0,0,0,0,0,0,0,0,0,0,1,59.3415511,18.0287051,2.3 km
Eyvind Johnsons gata 7,4450000,2854.0,2023-04-03,51.0,2.0,1,0,0,1,0,1,0,0,0,0,59.3401194,18.0084048,3.4 km
Högalidsgatan 13B,6585000,3380.0,2023-04-03,66.0,3.0,1,0,0,0,0,0,0,0,1,0,59.3179291,18.0329719,3.5 km
Drottningholmsvägen 78,3350000,3304.0,2023-04-03,35.0,2.0,1,0,0,0,0,1,0,0,0,0,59.33183349999999,18.0151853,2.8 km
Siargatan 11,5300000,3269.0,2023-04-03,69.0,3.0,1,0,0,0,0,0,0,0,1,0,59.312501,18.0688491,2.6 km
Hornsgatan 117 /Drakenbergsgatan 16,3550000,2111.0,2023-04-03,46.0,1.5,1,0,0,1,0,0,0,0,1,0,59.3158039,18.0400653,3.3 km
Lindhagensgatan 77,4850000,3050.0,2023-04-03,62.0,3.0,1,0,0,1,0,1,0,0,0,0,59.3339639,18.0149125,2.9 km
Värtavägen 53 B,8800000,4926.0,2023-04-03,95.0,4.0,1,0,1,0,1,0,0,0,0,0,59.3461916,18.1017097,3.6 km
Katarina Bangata 61 4.5tr,2900000,1582.0,2023-04-03,26.0,1.0,1,0,0,0,0,0,0,0,1,0,59.30931349999999,18.0876234,3.5 km
Norra Stationsgatan 62B,3420000,2428.0,2023-04-03,35.0,2.0,1,0,0,1,0,0,0,0,0,1,59.34806030000001,18.0377742,2.4 km
St Eriksgatan 39,3100000,731.0,2023-04-03,25.0,1.0,1,0,0,0,0,1,0,0,0,0,59.3338699,18.0316953,1.8 km
Smedsbacksgatan 16,4350000,1830.0,2023-04-03,42.0,2.0,1,0,0,1,1,0,0,0,0,0,59.34790629999999,18.0999829,3.6 km
Engelbrektsgatan 16,10500000,4422.0,2023-04-03,87.0,3.5,1,0,0,1,0,0,0,1,0,0,59.34381510000001,18.0727293,1.9 km
Södra Agnegatan 26A,6550000,2491.0,2023-04-03,55.0,2.0,0,0,0,1,0,1,0,0,0,0,59.32956,18.0423343,1.3 km
Narvavägen 20,4365000,1850.0,2023-04-03,34.0,2.0,0,0,0,0,0,0,0,1,0,0,59.3355827,18.0918877,2.4 km
Jägmästargatan 12,4975000,2923.0,2023-04-03,51.0,2.0,0,0,0,0,1,0,0,0,0,0,59.354479,18.0984823,4.0 km
Linnégatan 60,10100000,4232.0,2023-04-03,77.0,3.0,1,0,0,1,0,0,0,1,0,0,59.33570519999999,18.0872087,2.1 km
Fredrikshovsgatan 10,18100000,6493.0,2023-04-03,150.0,4.0,1,0,0,1,0,0,0,1,0,0,59.3340085,18.0947432,2.5 km
Tjurbergsgatan 27C,5650000,4287.0,2023-04-03,76.5,3.0,1,0,0,1,0,0,0,0,1,0,59.3100953,18.0734024,2.9 km
Karlavägen 8,11800000,3775.0,2023-04-03,100.0,4.0,1,0,0,1,0,0,0,1,0,0,59.3442286,18.0647673,1.9 km
Artemisgatan 7,6600000,4147.0,2023-04-02,78.0,3.0,0,0,0,1,1,0,0,0,0,0,59.35449409999999,18.1009161,4.0 km
Kungsholms strand 143,3900000,2257.0,2023-04-02,53.0,2.0,0,0,0,0,0,1,0,0,0,0,59.3373962,18.0303092,2.0 km
Ringvägen 129A,7000000,3452.0,2023-04-02,87.0,2.5,1,0,0,0,0,0,0,0,1,0,59.30829720000001,18.0782177,3.2 km
Bondegatan 24,3100000,1560.0,2023-04-02,27.0,1.0,1,0,0,1,0,0,0,0,1,0,59.312859,18.0796136,2.9 km
Tjurbergsgatan 27A,6100000,4287.0,2023-04-02,76.5,3.0,1,0,0,1,0,0,0,0,1,0,59.3099699,18.0729592,2.9 km
Götgatan 122 (ingång Ringvägen 111),7950000,4680.0,2023-04-02,99.0,5.0,1,0,0,1,0,0,0,0,1,0,59.3079599,18.0753538,3.2 km
Strålgatan 45,3300000,3039.0,2023-04-02,46.0,2.0,1,0,0,1,0,1,0,0,0,0,59.3244387,18.0033127,4.0 km
Östgötagatan 87B,6650000,2558.0,2023-04-02,70.0,3.0,1,0,0,0,0,0,0,0,1,0,59.30857260000001,18.079621,3.2 km
Wollmar Yxkullsgatan 48B,4100000,2751.0,2023-04-02,40.0,2.0,0,0,0,0,0,0,0,0,1,0,59.31585690000001,18.0536598,2.7 km
John Ericssonsgatan 14,3050000,1224.0,2023-04-02,30.0,1.5,1,0,0,0,0,1,0,0,0,0,59.3290499,18.0380939,1.6 km
Folkungagatan 101,3800000,2156.0,2023-04-01,42.0,2.0,1,0,0,0,0,0,0,0,1,0,59.31570900000001,18.0844609,2.8 km
Flintbacken 2,6100000,4102.0,2023-04-01,80.0,3.0,1,0,0,1,0,0,0,0,1,0,59.3106873,18.0501817,3.6 km
Timmermansgatan 38B,4300000,2964.0,2023-04-01,50.0,2.0,1,0,0,1,0,0,0,0,1,0,59.3154339,18.0611245,2.5 km
Saltmätargatan 6,3800000,1259.0,2023-04-01,35.0,1.0,1,0,0,0,0,0,1,0,0,0,59.33909,18.0594331,1.1 km
Rörstrandsgatan 48A,4575000,2467.0,2023-04-01,37.0,2.0,0,0,0,1,0,0,0,0,0,1,59.3416386,18.0276033,2.3 km
Bråvallagatan 8,3250000,2184.0,2023-04-01,31.0,1.0,1,0,0,0,0,0,0,0,0,1,59.33873089999999,18.0350135,1.8 km
Hälsingegatan 61,5025000,2501.0,2023-04-01,52.0,1.5,1,0,0,1,0,0,0,0,0,1,59.34829649999999,18.0363521,2.5 km
Dalagatan 30,11850000,2662.0,2023-04-01,90.0,4.0,1,0,0,1,0,0,0,0,0,1,59.3399417,18.0475341,1.2 km
Wittstocksgatan 7,18600000,4996.0,2023-04-01,132.0,3.0,1,0,0,1,0,0,0,1,0,0,59.3386279,18.094066,2.6 km
Regeringsgatan 70D,9600000,4030.0,2023-03-31,103.0,4.0,1,0,0,1,0,0,0,1,0,0,59.336854,18.0689749,1.0 km
Bohusgatan 37,6150000,2997.0,2023-03-31,75.0,3.0,1,0,0,0,0,0,0,0,1,0,59.3074776,18.0814201,3.5 km
Strålgatan 47,2400000,2052.0,2023-03-31,24.0,1.0,1,0,0,1,0,1,0,0,0,0,59.32451429999999,18.0038425,3.9 km
Brännkyrkagatan 55,9360000,5912.0,2023-03-31,101.0,5.0,1,0,0,1,0,0,0,0,1,0,59.3189185,18.0586257,2.1 km
Folkungagatan 101,2300000,1463.0,2023-03-31,24.0,1.0,1,0,0,0,0,0,0,0,1,0,59.31570900000001,18.0844609,2.8 km
Carl-Gustaf Lindstedts Gata 6,6550000,6054.0,2023-03-31,81.5,3.0,1,0,0,1,0,1,0,0,0,0,59.333552,18.0438305,1.1 km
Fleminggatan 81,4575000,2500.0,2023-03-31,46.0,2.0,1,0,0,0,0,1,0,0,0,0,59.33425949999999,18.0332168,1.7 km
Starrängsringen 23,8700000,4297.0,2023-03-31,85.0,3.0,1,0,0,1,1,0,0,0,0,0,59.3438792,18.0854383,2.4 km
Ringvägen 83,5900000,3105.0,2023-03-31,66.0,2.5,1,0,0,1,0,0,0,0,1,0,59.3086043,18.0654154,3.2 km
Kungstensgatan 29,5900000,2586.0,2023-03-31,60.0,2.0,1,1,0,0,0,0,0,0,0,1,59.3417784,18.0598214,1.6 km
Tjurbergsgatan 27E,5475000,4287.0,2023-03-31,76.5,3.0,1,0,0,1,0,0,0,0,1,0,59.310161,18.0738843,2.9 km
Björngårdsgatan 14B,13900000,3944.0,2023-03-31,108.0,4.0,0,1,0,0,0,0,0,0,1,0,59.31555040000001,18.066031,2.3 km
Sveavägen 136,8375000,2667.0,2023-03-31,80.0,3.0,1,0,0,1,0,0,0,0,0,1,59.3458767,18.0542532,2.0 km
Idungatan 8A,9000000,2926.0,2023-03-31,73.0,3.0,1,1,0,1,0,0,0,0,0,1,59.348459,18.0469912,2.1 km
Folkungagatan 136A,3355000,1787.0,2023-03-31,32.0,1.0,0,0,0,0,0,0,0,0,1,0,59.3154233,18.0889842,3.0 km
Wittstocksgatan 30,9000000,1431.0,2023-03-31,76.0,3.0,1,0,0,1,0,0,0,1,0,0,59.3385054,18.0979277,2.9 km
Norrtullsgatan 36,3550000,1903.0,2023-03-31,33.0,1.5,1,0,0,1,0,0,0,0,0,1,59.3493796,18.0451906,2.2 km
Vulcanusgatan 1,4000000,2206.0,2023-03-31,42.0,1.5,1,0,0,0,0,0,0,0,0,1,59.3379509,18.0367437,1.6 km
Värtavägen 31,6050000,3193.0,2023-03-31,61.0,3.0,1,0,0,0,1,0,0,0,0,0,59.3424757,18.0976664,3.1 km
Sysslomansgatan 8,3800000,2059.0,2023-03-31,41.0,2.0,1,0,0,0,0,1,0,0,0,0,59.3313303,18.0263937,2.3 km
Sandhamnsgatan 21,5295000,2035.0,2023-03-31,59.0,3.0,1,0,0,1,1,0,0,0,0,0,59.3454257,18.1095332,4.1 km
Luntmakargatan 61,11500000,6980.0,2023-03-31,113.0,4.0,1,0,0,1,0,0,1,0,0,0,59.3402462,18.0604536,1.3 km
Skeppargatan 98,2800000,1378.0,2023-03-31,22.5,1.0,1,0,0,0,1,0,0,0,0,0,59.34273700000001,18.0905008,2.7 km
John Ericssonsgatan 15,3900000,1495.0,2023-03-31,35.0,1.0,1,0,0,1,0,1,0,0,0,0,59.3294779,18.0377677,1.6 km
Östgötagatan 66,3850000,902.0,2023-03-31,38.0,1.0,1,0,0,0,0,0,0,0,1,0,59.3085811,18.0792286,3.2 km
Gambrinusgatan 5,3300000,2072.0,2023-03-31,36.0,2.0,1,0,0,0,0,1,0,0,0,0,59.3303142,18.0375441,1.5 km
Kaptensgatan 11,20000000,5208.0,2023-03-31,129.0,4.0,1,0,0,0,0,0,0,1,0,0,59.33287389999999,18.0816957,1.6 km
Rindögatan 30,3835000,2771.0,2023-03-30,38.0,1.5,1,0,0,1,0,0,0,1,0,0,59.345586,18.0980498,3.3 km
Sågargatan 17,5960000,5101.0,2023-03-30,62.0,3.0,1,0,0,1,0,0,0,0,1,0,59.3139545,18.0914801,3.3 km
Kommendörsgatan 4 ,9995000,3950.0,2023-03-30,78.0,4.0,1,0,0,1,0,0,0,1,0,0,59.3392446,18.0763154,1.6 km
Smedsbacksgatan 26,3350000,3218.0,2023-03-30,45.0,2.0,1,0,0,1,1,0,0,0,0,0,59.3487101,18.0988071,3.5 km
Ruddammsvägen 4,3500000,1683.0,2023-03-30,34.0,1.5,1,1,0,1,0,0,0,1,0,0,59.34956270000001,18.0642223,2.6 km
Starrängsringen 45,6175000,1892.0,2023-03-30,57.0,3.0,1,0,0,1,1,0,0,0,0,0,59.3449495,18.0843117,2.4 km
Lindhagensgatan 63,2860000,1728.0,2023-03-30,27.5,1.0,0,0,0,0,0,1,0,0,0,0,59.33311579999999,18.0167545,2.8 km
Nordenflychtsvägen 64,4050000,1579.0,2023-03-30,45.0,1.5,1,0,0,0,0,1,0,0,0,0,59.33822299999999,18.0096641,3.3 km
Bergsgatan 5B,14400000,5129.0,2023-03-30,118.0,4.0,1,0,0,1,0,1,0,0,0,0,59.3291782,18.045964,1.0 km
Norra Agnegatan 34A,11000000,3794.0,2023-03-30,93.0,4.0,1,0,0,1,0,1,0,0,0,0,59.33216059999999,18.0438226,1.2 km
Sankt Eriksgatan 71B,5800000,2462.0,2023-03-30,54.0,2.0,1,0,0,1,0,0,0,0,0,1,59.3386462,18.0356376,1.8 km
Jungfrugatan 28,5850000,2070.0,2023-03-30,50.0,2.0,1,0,0,0,0,0,0,1,0,0,59.338288,18.0832318,1.9 km
Skeppargatan 57,17000000,4044.0,2023-03-30,114.0,4.0,1,0,0,1,0,0,0,1,0,0,59.3381718,18.0860423,2.1 km
Tjustgatan 3,3165000,2334.0,2023-03-30,36.0,1.5,1,0,0,0,0,0,0,0,1,0,59.31215160000001,18.0707427,2.7 km
Fleminggatan 70,8175000,2594.0,2023-03-30,83.0,3.0,1,0,0,1,0,1,0,0,0,0,59.33541119999999,18.0269257,2.0 km
Norra Stationsgatan 64B,4450000,3001.0,2023-03-30,46.5,2.0,1,0,0,1,0,0,0,0,0,1,59.3480235,18.037674,2.4 km
Strålgatan 21,2800000,2735.0,2023-03-30,39.0,2.0,1,0,0,0,0,1,0,0,0,0,59.3239771,18.0057555,3.8 km
Bergsgatan 51,5515000,1491.0,2023-03-30,55.0,2.5,1,0,0,0,0,1,0,0,0,0,59.3306418,18.0371054,1.5 km
Breitenfeldsgatan 1,14500000,3618.0,2023-03-30,83.0,3.0,0,0,0,0,0,0,0,1,0,0,59.33858960000001,18.0945334,2.7 km
Hälsingehöjden 3,7175000,3217.0,2023-03-30,63.0,2.0,1,0,0,1,0,0,0,0,0,1,59.34342840000001,18.0398047,1.9 km
Kristinebergsvägen 14,5770000,3701.0,2023-03-30,71.0,3.0,1,0,0,1,0,1,0,0,0,0,59.3339069,18.0139586,3.0 km
Frejgatan 37,6500000,3477.0,2023-03-30,67.0,2.0,1,0,0,1,0,0,0,0,0,1,59.34689039999999,18.0558976,2.1 km
Svedbergsplan 4,4905000,1145.0,2023-03-30,51.0,2.0,1,0,0,1,0,1,0,0,0,0,59.327832,18.0114558,3.4 km
Roslagsgatan 47,4350000,2568.0,2023-03-30,46.0,2.0,1,0,0,0,0,0,0,0,0,1,59.34972080000001,18.0565019,2.5 km
Franzéngatan 74,5870000,3103.0,2023-03-30,60.0,2.0,1,0,0,1,0,1,0,0,0,0,59.33880689999999,18.0051314,3.6 km
Duvnäsgatan 5,8600000,3395.0,2023-03-29,83.0,4.0,1,0,0,0,0,0,0,0,1,0,59.3132888,18.0946105,3.5 km
Gotlandsgatan 60,4370000,2649.0,2023-03-29,44.0,1.5,1,0,0,1,0,0,0,0,1,0,59.31003639999999,18.0800693,3.1 km
Katarina Bangata 66,6150000,3561.0,2023-03-29,65.0,2.0,1,0,0,0,0,0,0,0,1,0,59.3099015,18.0849557,3.3 km
Samaritgränd 3,4400000,2534.0,2023-03-29,42.0,2.0,1,0,0,0,0,0,0,0,1,0,59.3163972,18.0552042,2.6 km
Celsiusgatan 8,3930000,2105.0,2023-03-29,41.0,2.0,1,0,0,0,0,1,0,0,0,0,59.3331495,18.0393295,1.4 km
Lokstallsgatan 6,3995000,1845.0,2023-03-29,39.0,2.0,1,0,0,0,0,0,0,0,0,1,59.3376999,18.0395683,1.4 km
Lilla Erstagatan 6,16600000,7711.0,2023-03-29,152.0,5.0,1,0,0,1,0,0,0,0,1,0,59.3164711,18.0881214,2.9 km
Tegnérgatan 19,3050000,1198.0,2023-03-29,21.0,1.0,1,0,0,1,0,0,0,0,0,1,59.33989609999999,18.061763,1.3 km
Hantverkargatan 37,3975000,1390.0,2023-03-29,36.0,2.0,1,0,0,1,0,1,0,0,0,0,59.32913079999999,18.0416458,1.3 km
Upplandsgatan 67A,9100000,4338.0,2023-03-29,75.0,3.0,1,0,0,1,0,0,0,0,0,1,59.34396529999999,18.0461511,1.6 km
Bråvallagatan 9B,3700000,2027.0,2023-03-29,34.0,1.0,1,0,0,0,0,0,0,0,0,1,59.3390849,18.0347196,1.8 km
Högbergsgatan 59,7290000,4380.0,2023-03-29,71.0,3.0,1,0,0,0,0,0,0,0,1,0,59.31587039999999,18.0679592,2.1 km
Karlbergsvägen 37B,4800000,840.0,2023-03-29,37.0,2.0,0,0,0,0,0,0,0,0,0,1,59.3423975,18.0389716,1.9 km
Valhallavägen 131,2970000,1116.0,2023-03-29,23.0,1.0,1,0,0,1,0,0,0,1,0,0,59.3420607,18.0867333,2.4 km
Starrängsringen 25,6200000,2932.0,2023-03-29,58.0,2.0,1,0,0,1,1,0,0,0,0,0,59.34383829999999,18.0857626,2.4 km
Katarina Bangata 62,3350000,2244.0,2023-03-29,36.0,2.0,1,0,0,0,0,0,0,0,1,0,59.3100653,18.0843238,3.3 km
Fleminggatan 35,9750000,3679.0,2023-03-29,100.0,3.0,1,0,0,1,0,1,0,0,0,0,59.3331333,18.0418221,1.2 km
Alsnögatan 22,6350000,4800.0,2023-03-29,78.6,3.0,1,0,0,1,0,0,0,0,1,0,59.3122093,18.1006475,3.8 km
Erik Dahlbergsgatan 71,6225000,3622.0,2023-03-29,70.0,3.0,1,0,0,1,1,0,0,0,0,0,59.34649030000001,18.0926853,2.9 km
Öregrundsgatan 15,4650000,2927.0,2023-03-29,60.5,2.0,1,0,0,1,0,0,0,1,0,0,59.3449458,18.1131461,4.3 km
Frejgatan 49,11700000,2826.0,2023-03-29,103.0,4.0,1,0,0,1,0,0,0,0,0,1,59.3461886,18.0528963,2.0 km
Nybrogatan 73,18500000,2324.0,2023-03-29,107.0,3.0,1,0,0,1,0,0,0,1,0,0,59.3402076,18.0813798,1.9 km
Love Almqvists väg 4B,3360000,3243.0,2023-03-29,38.0,2.0,1,0,0,1,0,1,0,0,0,0,59.33480780000001,18.0023359,3.8 km
Blekingegatan 12,3750000,2386.0,2023-03-29,36.0,2.0,1,0,0,0,0,0,0,0,1,0,59.3091902,18.0659459,3.1 km
Eastmansvägen 11,16220000,5277.0,2023-03-29,120.0,5.0,1,0,0,1,0,0,0,0,0,1,59.33976089999999,18.045884,1.3 km
Åsögatan 181,5490000,2346.0,2023-03-29,49.0,2.0,1,0,0,1,0,0,0,0,1,0,59.31478899999999,18.0894883,3.1 km
Sandelsgatan 35,4510000,2198.0,2023-03-29,41.0,2.0,1,0,0,1,1,0,0,0,0,0,59.343963,18.0937802,3.0 km
Folkskolegatan 12,3650000,3176.0,2023-03-29,41.0,1.0,1,0,0,0,0,0,0,0,1,0,59.3171243,18.0298918,3.8 km
Hagaesplanaden 74,4750000,2899.0,2023-03-29,46.5,2.0,1,0,0,1,0,0,0,0,0,1,59.3486365,18.0371827,2.5 km
Ingemarsgatan 4,8700000,4375.0,2023-03-29,99.0,4.0,1,0,0,1,0,0,0,0,0,1,59.34959709999999,18.0576493,2.5 km
Alströmergatan 32 I,7450000,5141.0,2023-03-29,89.0,4.5,1,0,0,1,0,1,0,0,0,0,59.33746069999999,18.0265632,2.3 km
Nina Einhorns Gata 10,6200000,4130.0,2023-03-29,71.0,3.0,1,0,0,1,0,0,0,0,0,1,59.3478256,18.0352029,2.6 km
Dalagatan 35A,6425000,2824.0,2023-03-29,54.0,3.0,1,0,0,0,0,0,0,0,0,1,59.3446146,18.0423991,1.8 km
Ernst Ahlgrens Väg 10,3700000,2282.0,2023-03-29,41.0,2.0,0,0,0,1,0,1,0,0,0,0,59.3304854,18.003931,3.6 km
Bergsundsgatan 4,2775000,1084.0,2023-03-29,26.0,1.0,1,1,0,0,0,0,0,0,1,0,59.3180186,18.0282623,3.8 km
Fatburs Brunnsgata 18,5180000,3334.0,2023-03-29,61.0,2.0,1,0,0,1,0,0,0,0,1,0,59.3134011,18.0639813,2.6 km
Rålambshovsleden 38,7945000,4686.0,2023-03-29,84.0,3.0,1,0,0,1,0,1,0,0,0,0,59.3309763,18.0224211,2.6 km
Nackagatan 20,5810000,5649.0,2023-03-29,75.5,3.0,1,0,0,1,0,0,0,0,1,0,59.31039289999999,18.099474,4.0 km
Kocksgatan 58,4250000,1993.0,2023-03-29,46.0,2.0,0,1,0,0,0,0,0,0,1,0,59.314906,18.0849359,2.8 km
Kronobergsgatan 25 Lgh 1204,7025000,5221.0,2023-03-29,86.0,3.0,1,0,0,1,0,1,0,0,0,0,59.3337526,18.0339816,1.7 km
Valhallavägen 42,5495000,2483.0,2023-03-28,52.0,2.0,1,0,0,1,0,0,0,1,0,0,59.34782629999999,18.0640919,2.4 km
Dalagatan 70,9900000,3960.0,2023-03-28,80.5,3.0,0,0,0,1,0,0,0,0,0,1,59.3443104,18.0433579,1.8 km
Ulriksborgsgatan 16,7500000,4391.0,2023-03-28,97.0,4.0,1,0,0,1,0,1,0,0,0,0,59.333996,18.0177933,3.0 km
Sankt Eriksgatan 84,5900000,1909.0,2023-03-28,64.0,2.0,1,0,0,0,0,0,0,0,0,1,59.3404298,18.0374821,1.8 km
Torsgatan 48B,8400000,236.0,2023-03-28,70.0,2.5,0,0,0,0,0,0,0,0,0,1,59.34192429999999,18.0374433,1.8 km
Robert Almströmsgatan 12,4350000,2028.0,2023-03-28,35.0,2.0,1,0,0,0,0,0,0,0,0,1,59.3392122,18.0338494,1.9 km
Norrtullsgatan 36,3450000,1903.0,2023-03-28,33.0,2.0,1,0,0,0,0,0,0,0,0,1,59.3493796,18.0451906,2.2 km
Upplandsgatan 22,13700000,4520.0,2023-03-28,98.0,3.0,1,0,0,1,0,0,0,0,0,1,59.3392277,18.0522909,0.9 km
Torsgatan 27,3000000,1990.0,2023-03-28,29.0,1.0,1,0,0,0,0,0,0,0,0,1,59.3383075,18.039857,1.4 km
Banérgatan 41,10000000,2935.0,2023-03-28,76.0,3.0,1,0,0,0,0,0,0,1,0,0,59.3376902,18.09499,2.7 km
Kungsholms strand 171,4000000,2282.0,2023-03-28,41.0,1.0,1,0,0,0,0,1,0,0,0,0,59.33841669999999,18.0243137,2.4 km
Tomtebogatan 49A,5250000,3257.0,2023-03-28,47.0,2.0,1,0,0,0,0,0,0,0,0,1,59.3419636,18.0272812,2.3 km
Birkagatan 27,10850000,4259.0,2023-03-28,90.0,3.5,1,0,0,1,0,0,0,0,0,1,59.3411011,18.0351273,1.9 km
David Bagares gata 26 A,10550000,3962.0,2023-03-28,89.0,3.0,1,0,0,1,0,0,1,0,0,0,59.3372608,18.0658359,1.0 km
Krukmakargatan 38,2670000,2141.0,2023-03-28,22.0,1.0,0,0,0,0,0,0,0,0,1,0,59.31696849999999,18.0517827,2.7 km
Vintertullstorget 40,6795000,5308.0,2023-03-28,75.0,3.0,1,0,0,1,0,0,0,0,1,0,59.3074083,18.0917697,3.8 km
Drottningholmsvägen 1,12700000,6126.0,2023-03-28,118.0,4.0,1,0,0,0,0,1,0,0,0,0,59.3318393,18.0328448,1.8 km
Kommendörsgatan 6,6475000,1950.0,2023-03-28,49.0,2.0,0,0,0,0,0,0,0,1,0,0,59.339148,18.0765129,1.6 km
Lundagatan 42A,4070000,2105.0,2023-03-28,41.5,2.0,1,0,0,0,0,0,0,0,1,0,59.3185728,18.0448016,3.0 km
Parkgatan 14,6020000,3753.0,2023-03-28,56.0,2.0,1,0,0,1,0,1,0,0,0,0,59.3333836,18.0356373,1.6 km
Sveavägen 133,6575000,3737.0,2023-03-28,72.0,3.0,1,0,0,0,0,0,0,0,0,1,59.34874379999999,18.0506271,2.3 km
Artillerigatan 75,4650000,1801.0,2023-03-28,37.0,1.5,1,0,0,0,0,0,0,1,0,0,59.34072320000001,18.0858904,2.3 km
Tulegatan 49,9750000,4075.0,2023-03-28,91.0,3.5,1,0,0,1,0,0,0,0,0,1,59.3466192,18.0575469,2.2 km
Olof dalins väg 20,3950000,3026.0,2023-03-28,46.0,2.0,1,0,0,1,0,1,0,0,0,0,59.3364148,17.9987795,4.1 km
Folkungagatan 108,4450000,1266.0,2023-03-28,38.0,2.0,1,0,0,1,0,0,0,0,1,0,59.3152961,18.0835506,2.7 km
Drottningholmsvägen 17,6320000,2457.0,2023-03-28,59.0,2.0,1,0,0,1,0,1,0,0,0,0,59.33177209999999,18.0296159,2.1 km
Untravägen 23,3325000,3524.0,2023-03-28,44.2,2.0,0,0,0,0,1,0,0,0,0,0,59.3536848,18.0934157,4.0 km
Norra Stationsgatan 64A,3600000,2428.0,2023-03-28,35.0,2.0,1,0,1,1,0,0,0,0,0,1,59.3480558,18.0376415,2.4 km
Nybrogatan 66,4050000,1501.0,2023-03-28,31.0,1.0,1,0,0,0,0,0,0,1,0,0,59.3412703,18.0827123,2.0 km
Skeppargatan 77,4350000,2483.0,2023-03-28,42.0,2.0,1,0,0,1,1,0,0,0,0,0,59.3428018,18.0899485,2.7 km
Primusgatan 69,6125000,4568.0,2023-03-28,75.5,3.0,1,0,0,1,0,1,0,0,0,0,59.32360680000001,18.0035071,4.0 km
Erik Dahlbergsgatan 29A,4550000,2088.0,2023-03-27,33.0,2.0,1,0,0,1,0,0,0,1,0,0,59.3428076,18.0914325,2.8 km
Norra Stationsgatan 95A,7500000,3934.0,2023-03-27,91.0,4.0,1,0,0,1,0,0,0,0,0,1,59.34503039999999,18.0312305,2.5 km
Högalidsgatan 31,2600000,2097.0,2023-03-27,26.0,1.0,1,0,0,0,0,0,0,0,1,0,59.31829159999999,18.0292671,3.8 km
Ninni Kronbergs gata 10,3350000,2506.0,2023-03-27,33.5,1.0,1,0,0,0,0,0,0,0,0,1,59.3486775,18.034463,2.8 km
Hornsgatan 57B,14100000,2498.0,2023-03-27,146.0,4.0,1,0,0,0,0,0,0,0,1,0,59.3178446,18.0556102,2.4 km
Johannesgatan 3,8500000,2988.0,2023-03-27,67.0,3.0,1,0,0,1,0,0,0,0,0,1,59.3375006,18.0659098,1.0 km
Sankt Göransgatan 153,2500000,1721.0,2023-03-27,24.5,1.0,1,0,0,0,0,1,0,0,0,0,59.3380237,18.0144012,3.0 km
Västmannagatan 52,3100000,1686.0,2023-03-27,29.0,1.0,1,0,0,1,0,0,0,0,0,1,59.34145349999999,18.0482698,1.3 km
Flintbacken 6,6465000,4118.0,2023-03-27,80.5,3.0,1,0,0,1,0,0,0,0,1,0,59.31039289999999,18.0506243,3.6 km
Rindögatan 40,3000000,1695.0,2023-03-27,25.0,1.0,1,0,0,1,1,0,0,0,0,0,59.3451028,18.1001073,3.5 km
Sandelsgatan 35,4400000,2261.0,2023-03-27,36.0,2.0,1,0,0,1,1,0,0,0,0,0,59.343963,18.0937802,3.0 km
Hornsgatan 107,5150000,2926.0,2023-03-27,64.0,2.0,1,0,0,1,0,0,0,0,1,0,59.31608130000001,18.0416628,3.2 km
Götgatan 99,11350000,3399.0,2023-03-27,133.0,4.5,1,0,0,0,0,0,0,0,1,0,59.30745939999999,18.0770364,3.2 km
Kungsholms strand 179,4380000,2328.0,2023-03-27,43.0,2.0,1,0,0,0,0,1,0,0,0,0,59.3386392,18.0232058,2.5 km
Brännkyrkagatan 52,7600000,3939.0,2023-03-27,75.0,4.0,1,0,0,0,0,0,0,0,1,0,59.31911999999999,18.0586047,2.1 km
Tjurbergsgatan 38,3900000,2354.0,2023-03-27,39.0,2.0,1,0,0,0,0,0,0,0,1,0,59.3103978,18.0723972,2.8 km
Tomtebogatan 31,3110000,1153.0,2023-03-27,23.0,1.0,1,0,0,0,0,0,0,0,0,1,59.34151499999999,18.0300222,2.2 km
Fleminggatan 73,6320000,4334.0,2023-03-27,74.0,2.5,1,0,0,0,0,1,0,0,0,0,59.3340213,18.0345434,1.6 km
Värtavägen 59,2320000,1201.0,2023-03-27,22.0,1.0,0,0,0,0,1,0,0,0,0,0,59.34752450000001,18.1018719,3.7 km
Sankt Eriksgatan 24,7350000,1679.0,2023-03-27,76.0,3.0,1,0,0,1,0,1,0,0,0,0,59.3317683,18.031246,1.9 km
Norra Agnegatan 38,6150000,2420.0,2023-03-27,60.0,2.0,1,0,0,1,0,1,0,0,0,0,59.33256420000001,18.0434384,1.1 km
Sveavägen 99,3900000,1909.0,2023-03-27,38.0,2.0,1,0,0,0,0,0,0,0,0,1,59.34582140000001,18.0526427,2.0 km
Creutzgatan 11,3580000,2094.0,2023-03-27,37.0,2.0,0,0,0,0,0,1,0,0,0,0,59.3325953,18.014689,2.9 km
Grevgatan 20,3600000,1499.0,2023-03-27,26.0,1.0,1,0,0,0,0,0,0,1,0,0,59.333566,18.084672,1.8 km
Grevgatan 40,4100000,1882.0,2023-03-27,33.0,2.0,0,0,0,0,0,0,0,1,0,0,59.33538799999999,18.0861059,2.0 km
Gävlegatan 36B,5550000,3393.0,2023-03-27,47.6,2.0,1,0,0,0,0,0,0,0,0,1,59.3481732,18.0326672,2.6 km
Grevgatan 39 med balkong,16330000,5829.0,2023-03-27,142.0,5.0,1,0,0,1,0,0,0,1,0,0,59.3357235,18.0857115,2.0 km
Norr Mälarstrand 94,3150000,1559.0,2023-03-26,24.0,1.0,1,0,0,1,0,1,0,0,0,0,59.33044229999999,18.0254209,2.4 km
Fryxellsgatan 3 B ,5725000,2566.0,2023-03-26,61.0,2.0,1,0,0,0,0,0,0,1,0,0,59.3430511,18.0648062,1.7 km
Cardellgatan 4,6200000,3741.0,2023-03-26,53.0,2.0,1,1,0,0,0,0,0,1,0,0,59.33872049999999,18.0759543,1.5 km
Medborgarplatsen 11,6000000,4578.0,2023-03-26,70.0,3.0,1,0,0,0,0,0,0,0,1,0,59.3151812,18.0708658,2.2 km
Erstagatan 11,4800000,2273.0,2023-03-26,44.0,2.0,0,0,0,0,0,0,0,0,1,0,59.31499599999999,18.0902997,3.1 km
Riddargatan 29D,7900000,1906.0,2023-03-26,66.0,2.0,0,0,0,1,0,0,0,1,0,0,59.33307560000001,18.0847163,1.7 km
Hälsingegatan 61,5100000,2501.0,2023-03-26,52.0,2.0,1,0,0,0,0,0,0,0,0,1,59.34829649999999,18.0363521,2.5 km
Sara Lidmans gata 4,5850000,2462.0,2023-03-26,68.0,2.0,1,0,0,1,0,1,0,0,0,0,59.33842730000001,18.0033869,3.7 km
Furusundsgatan 8,3300000,1646.0,2023-03-26,31.0,1.0,1,0,0,1,1,0,0,0,0,0,59.3475462,18.0964689,3.2 km
Tullgårdsgatan 10,7700000,3620.0,2023-03-25,74.0,4.0,1,0,0,1,0,0,0,0,1,0,59.3056332,18.0848817,3.8 km
Adolf fredriks kyrkogata 3,6700000,3089.0,2023-03-25,61.0,2.0,1,0,0,1,0,0,0,0,0,1,59.33774999999999,18.062623,1.0 km
Bondegatan 4,12050000,3285.0,2023-03-25,99.0,3.0,1,0,0,1,0,0,0,0,1,0,59.3123709,18.075871,2.7 km
Primusgatan 69,6195000,4825.0,2023-03-25,81.0,4.0,1,1,0,0,0,1,0,0,0,0,59.32360680000001,18.0035071,4.0 km
Upplandsgatan 64,16250000,5187.0,2023-03-24,143.0,5.0,1,0,0,0,0,0,0,0,0,1,59.3445019,18.0469522,1.6 km
Melodislingan 46,9400000,5915.0,2023-03-24,81.0,3.0,1,0,0,1,1,0,0,0,0,0,59.34512040000001,18.0817565,2.3 km
Timmermansgatan 37,7800000,4593.0,2023-03-24,83.0,3.5,1,0,0,0,0,0,0,0,1,0,59.31495759999999,18.0618237,2.5 km
Wivalliusgatan 6,11650000,6743.0,2023-03-24,119.5,5.0,0,1,0,1,0,1,0,0,0,0,59.32612289999999,18.0130589,3.4 km
Strindbergsgatan 51,6675000,2859.0,2023-03-24,61.0,2.5,1,0,0,1,0,0,0,1,0,0,59.3413289,18.0952275,3.0 km
Kungsklippan 12,3000000,2896.0,2023-03-24,30.5,1.0,1,0,0,1,0,1,0,0,0,0,59.33019580000001,18.0484427,0.8 km
Fleminggatan 40A,3600000,1990.0,2023-03-24,40.0,1.0,1,0,0,0,0,1,0,0,0,0,59.3344608,18.0342758,1.6 km
Karlbergsvägen 58,3925000,1196.0,2023-03-24,33.0,1.0,1,0,0,0,0,0,0,0,0,1,59.3426521,18.0346725,2.0 km
Upplandsgatan 84,15000000,2832.0,2023-03-24,118.0,5.0,1,0,0,1,0,0,0,0,0,1,59.3466107,18.0448533,1.9 km
Katarina Bangata 65,2850000,1579.0,2023-03-24,28.0,1.0,1,0,0,1,0,0,0,0,1,0,59.30910230000001,18.0882862,3.5 km
Erik Dahlbergsgatan 63,10200000,4795.0,2023-03-24,104.0,4.0,1,0,0,1,1,0,0,0,0,0,59.34600649999999,18.0928916,2.9 km
Linnégatan 17A,3210000,1326.0,2023-03-24,26.0,1.0,1,0,0,0,0,0,0,1,0,0,59.3377261,18.0783365,1.5 km
Hornsgatan 55A,5850000,2094.0,2023-03-24,53.0,2.0,0,0,0,1,0,0,0,0,1,0,59.3178604,18.0561573,2.3 km
Tomtebogatan 26A,4525000,1977.0,2023-03-24,39.0,2.0,0,0,0,0,0,0,0,0,0,1,59.3415059,18.0310855,2.2 km
Surbrunnsgatan 1,10500000,2567.0,2023-03-24,78.0,2.0,1,0,0,1,0,0,0,1,0,0,59.347143,18.065003,2.3 km
Maria Skolgata 87,4900000,3118.0,2023-03-24,46.0,2.0,1,0,0,0,0,0,0,0,1,0,59.314749,18.0536432,2.9 km
Nybrogatan 57,15375000,5577.0,2023-03-24,115.0,4.0,1,0,0,1,0,0,0,1,0,0,59.3381388,18.0797673,1.7 km
Sankt Eriksgatan 52A,8300000,3087.0,2023-03-24,68.0,2.0,1,0,0,1,0,1,0,0,0,0,59.3357169,18.0345543,1.8 km
Roslagsgatan 26,5080000,2301.0,2023-03-24,55.4,2.0,1,0,0,0,0,0,0,0,0,1,59.3471642,18.0595485,2.2 km
Tyskbagargatan 14,10500000,2824.0,2023-03-24,66.1,3.0,1,0,0,1,0,0,0,1,0,0,59.3395257,18.0848842,2.1 km
Karlavägen 20B,6750000,816.0,2023-03-24,56.0,2.5,1,0,0,1,0,0,0,1,0,0,59.34260519999999,18.067878,1.7 km
Sibyllegatan 31,3800000,907.0,2023-03-24,29.0,1.0,1,1,0,0,0,0,0,1,0,0,59.33653649999999,18.0800361,1.6 km
Åsögatan 167,6500000,3475.0,2023-03-24,60.0,2.0,0,0,0,1,0,0,0,0,1,0,59.3145352,18.0855695,2.9 km
Strålgatan 21,3150000,2735.0,2023-03-24,39.0,2.0,1,0,0,0,0,1,0,0,0,0,59.3239771,18.0057555,3.8 km
Metargatan 13,7900000,3398.0,2023-03-24,85.0,3.0,0,0,0,1,0,0,0,0,1,0,59.30848779999999,18.0864083,3.6 km
Götgatan 101,3450000,1978.0,2023-03-24,38.0,1.5,1,0,0,0,0,0,0,0,1,0,59.30731340000001,18.0772245,3.2 km
Tavastgatan 16,5750000,2316.0,2023-03-24,47.0,2.0,1,0,0,1,0,0,0,0,1,0,59.319954,18.061869,1.9 km
Vanadisvägen 11A,4600000,1714.0,2023-03-24,47.0,1.0,1,0,0,1,0,0,0,0,0,1,59.34679809999999,18.0479882,2.0 km
Strålgatan 8,4665000,4807.0,2023-03-24,60.0,2.0,1,0,0,1,0,1,0,0,0,0,59.32446220000001,18.0057417,3.8 km
Kammakargatan 44A,5430000,1545.0,2023-03-23,46.0,2.0,0,0,0,1,0,0,0,0,0,1,59.3379232,18.0563133,0.9 km
Åsögatan 92,4515000,2560.0,2023-03-23,42.0,2.0,1,0,0,1,0,0,0,0,1,0,59.31223679999999,18.0695169,2.7 km
Bjurholmsgatan 14,8600000,0.0,2023-03-23,80.0,3.0,1,0,0,1,0,0,0,0,1,0,59.31049710000001,18.0790089,3.0 km
Metargatan 15,9400000,5131.0,2023-03-23,96.0,4.0,1,0,0,1,0,0,0,0,1,0,59.3085775,18.0869176,3.5 km
Luxgatan 7,3905000,2821.0,2023-03-23,44.0,2.5,1,0,0,1,0,1,0,0,0,0,59.3243204,18.0086907,3.8 km
Verkstadsgatan 5,3300000,2245.0,2023-03-23,38.0,1.5,1,0,0,1,0,0,0,0,1,0,59.3175467,18.0313865,3.6 km
Tegnérgatan 55D,5800000,3149.0,2023-03-23,52.1,2.0,1,0,0,1,0,0,0,0,0,1,59.33684900000001,18.051425,0.8 km
Orvar Odds Väg 2,3850000,2373.0,2023-03-23,40.0,2.0,1,0,0,1,0,1,0,0,0,0,59.32977469999999,17.9997789,4.0 km
Tvätterskevägen 6,3150000,2447.0,2023-03-23,40.0,1.5,0,0,0,1,0,1,0,0,0,0,59.3235477,17.9907952,4.9 km
Norra Stationsgatan 53,7125000,3936.0,2023-03-23,80.0,3.0,1,0,0,1,0,0,0,0,0,1,59.3494226,18.0434042,2.2 km
Warfvinges Väg 18,8230000,5729.0,2023-03-23,88.0,4.0,1,1,0,0,0,1,0,0,0,0,59.33670859999999,18.0141203,3.0 km
Primusgatan 82,4350000,3076.0,2023-03-23,46.0,2.0,1,0,0,1,0,1,0,0,0,0,59.3227523,18.0035496,4.1 km
Nytorgsgatan 21B,4350000,2107.0,2023-03-23,47.0,2.0,1,0,0,0,0,0,0,0,1,0,59.31543139999999,18.0814247,2.6 km
Fyrverkarbacken 42,11000000,3609.0,2023-03-23,123.3,5.0,1,0,0,1,0,1,0,0,0,0,59.32596110000001,18.0192463,3.1 km
Karlavägen 82,5350000,1457.0,2023-03-23,36.0,2.0,1,0,0,1,0,0,0,1,0,0,59.3371064,18.0918245,2.4 km
Torsgatan 38,8800000,3811.0,2023-03-23,83.0,3.5,1,0,0,1,0,0,0,0,0,1,59.3405737,18.0386424,1.7 km
Dalagatan 8,3420000,1513.0,2023-03-23,29.0,1.0,1,0,0,0,0,0,0,0,0,1,59.33673950000001,18.0508455,0.8 km
Lanforsvägen 27,3250000,3172.0,2023-03-23,44.2,2.0,0,0,0,0,1,0,0,0,0,0,59.3523904,18.0953999,3.9 km
Industrigatan 2A,5410000,2895.0,2023-03-23,53.0,2.0,1,0,0,1,0,1,0,0,0,0,59.3366474,18.0314189,2.0 km
Sysslomansgatan 24,7750000,5245.0,2023-03-23,89.0,3.0,1,0,0,1,0,1,0,0,0,0,59.3308815,18.0241341,2.4 km
Renstiernas Gata 30,4500000,2726.0,2023-03-23,50.0,2.0,1,0,0,0,0,0,0,0,1,0,59.3134223,18.0846619,3.0 km
Rindögatan 10,3325000,1768.0,2023-03-23,30.0,1.0,1,0,0,1,1,0,0,0,0,0,59.34703320000001,18.0950337,3.1 km
Slipgatan 11,3950000,3205.0,2023-03-23,42.0,2.0,1,0,0,1,0,0,0,0,1,0,59.3170059,18.0280306,3.8 km
Ludvigsbergsgatan 31,10500000,4709.0,2023-03-23,118.0,5.0,1,0,0,1,0,0,0,0,1,0,59.3190795,18.0538611,2.4 km
Möregatan 7,3450000,2759.0,2023-03-23,37.0,2.0,1,0,0,0,0,0,0,0,1,0,59.3118079,18.070375,2.7 km
Sankt Eriksplan 13,4950000,2712.0,2023-03-23,50.0,1.5,1,0,0,1,0,0,0,0,0,1,59.3392278,18.0373213,1.6 km
Vegagatan 18,6850000,4041.0,2023-03-23,68.0,2.0,1,0,0,1,0,0,0,0,0,1,59.3425325,18.0503191,1.4 km
Torsgatan 42B,4600000,2337.0,2023-03-23,39.0,2.0,1,0,0,0,0,0,0,0,0,1,59.34086629999999,18.0383995,1.7 km
Tullgårdsgatan 20,9750000,7442.0,2023-03-23,112.0,5.0,1,0,0,1,0,0,0,0,1,0,59.3061177,18.087335,3.8 km
Roslagsgatan 28,16500000,4425.0,2023-03-22,113.0,4.0,1,0,0,1,0,0,0,0,0,1,59.3472841,18.0594341,2.2 km
Idungatan 14,6700000,2486.0,2023-03-22,58.0,2.0,1,0,0,0,0,0,0,0,0,1,59.34779679999999,18.0456453,2.1 km
Brännkyrkagatan 90,7905000,4223.0,2023-03-22,75.0,3.0,1,0,0,1,0,0,0,0,1,0,59.3178844,18.0485663,2.7 km
Norrtullsgatan 24,3080000,803.0,2023-03-22,25.0,1.0,1,0,0,0,0,0,0,0,0,1,59.3479872,18.0463212,2.1 km
Tegelviksgatan 87,8150000,5157.0,2023-03-22,70.0,3.0,1,0,0,1,0,0,0,0,1,0,59.3085883,18.0978681,4.3 km
Kammakargatan 70,3875000,1928.0,2023-03-22,37.0,1.5,1,0,0,1,0,0,0,0,0,1,59.3365996,18.0517261,0.7 km
Tomtebogatan 53,3950000,1907.0,2023-03-22,33.0,2.0,1,0,0,0,0,0,0,0,0,1,59.34235460000001,18.0270075,2.4 km
Norrtullsgatan 13,7900000,2472.0,2023-03-22,80.2,3.0,1,0,0,1,0,0,0,0,0,1,59.3420718,18.0512647,1.4 km
Kristinebergsvägen 24,4300000,2482.0,2023-03-22,55.5,2.5,1,1,0,1,0,1,0,0,0,0,59.3336266,18.0142326,3.0 km
Rödabergsbrinken 7,5500000,1770.0,2023-03-22,49.0,2.0,0,0,0,0,0,0,0,0,0,1,59.34405669999999,18.038625,2.2 km
Nordenflychtsvägen 62,10775000,4035.0,2023-03-22,108.0,4.0,1,0,0,1,0,1,0,0,0,0,59.33811309999999,18.0094897,3.4 km
Drottningholmsvägen 9,4300000,1400.0,2023-03-22,55.0,2.0,1,0,0,0,0,1,0,0,0,0,59.331891,18.0318072,1.8 km
Upplandsgatan 77A,6500000,3183.0,2023-03-22,57.0,2.0,1,0,0,1,0,0,0,0,0,1,59.3450142,18.0453204,1.7 km
Wollmar yxkullsgatan 52B,3870000,2170.0,2023-03-22,38.0,1.0,1,0,0,1,0,0,0,0,1,0,59.31581959999999,18.052436,2.7 km
Idungatan 10,3635000,2508.0,2023-03-22,30.0,1.0,0,0,0,1,0,0,0,0,0,1,59.3481137,18.0467373,2.1 km
Hagagatan 15C,8420000,3930.0,2023-03-22,77.0,3.0,1,0,0,1,0,0,0,0,0,1,59.344737,18.0511893,1.8 km
Fridhemsgatan 41,4400000,1097.0,2023-03-22,42.0,2.0,1,0,0,0,0,1,0,0,0,0,59.3350368,18.0308008,1.8 km
Bergsundsgatan 16,5600000,3783.0,2023-03-22,57.0,2.0,1,0,0,1,0,0,0,0,1,0,59.31694679999999,18.0285914,3.8 km
Tulegatan 45,8825000,1295.0,2023-03-22,90.0,4.0,1,0,0,1,0,0,0,0,0,1,59.3464094,18.0577128,2.1 km
Nybrogatan 23B,21000000,1026.0,2023-03-22,134.0,4.0,1,0,0,1,1,0,0,0,0,0,59.3354386,18.0771642,1.4 km
Sankt Eriksgatan 41,5100000,1375.0,2023-03-22,47.0,3.0,1,0,0,0,0,1,0,0,0,0,59.33394060000001,18.0317478,1.8 km
Nybrogatan 85,5350000,1950.0,2023-03-22,44.0,2.0,1,0,0,0,0,0,0,1,0,0,59.34165600000001,18.082405,2.1 km
Åsögatan 182,3600000,2393.0,2023-03-22,39.0,2.0,1,0,0,0,0,0,0,0,1,0,59.3144529,18.0892381,3.1 km
Hälsingegatan 8A,6550000,2220.0,2023-03-22,59.0,3.0,0,0,0,1,0,0,0,0,0,1,59.3439964,18.0420842,1.9 km
Frejgatan 17,4350000,1888.0,2023-03-22,37.2,2.0,0,0,0,0,0,0,0,0,0,1,59.3479642,18.0598155,2.4 km
Polhemsgatan 5,8330000,3188.0,2023-03-22,76.0,3.0,1,0,0,1,0,1,0,0,0,0,59.3284209,18.0351736,1.8 km
Sankt Göransgatan 70,6830000,2081.0,2023-03-22,75.5,2.5,1,0,0,1,0,1,0,0,0,0,59.333621,18.0309294,1.9 km
Karlbergsvägen 25B,7340000,2369.0,2023-03-22,61.0,2.0,0,0,0,1,0,0,0,0,0,1,59.34230660000001,18.0419649,1.7 km
Nina einhorns gata 10,4800000,3091.0,2023-03-22,48.0,2.0,1,0,0,1,0,0,0,0,0,1,59.3478256,18.0352029,2.6 km
Vitalisvägen 3,4000000,2570.0,2023-03-22,47.5,2.0,0,0,0,0,0,1,0,0,0,0,59.33064299999999,18.0063781,3.4 km
Garvar Lundins Gränd 9,9750000,4413.0,2023-03-22,86.0,3.5,1,0,0,0,0,1,0,0,0,0,59.327752,18.0434095,1.4 km
Fågelhundsgatan 16,8050000,5019.0,2023-03-22,92.0,3.0,1,1,0,0,1,0,0,0,0,0,59.3569492,18.084923,3.8 km
Rörstrandsgatan 38 A,4000000,2143.0,2023-03-21,34.0,2.0,0,1,0,0,0,0,0,0,0,1,59.3412834,18.0287882,2.2 km
Torbjörn Klockares Gata 21,3495000,1067.0,2023-03-21,32.0,1.0,0,0,0,0,0,0,0,0,0,1,59.3452745,18.0355358,2.3 km
Kammakargatan 18,3150000,2515.0,2023-03-21,28.0,1.0,1,0,0,0,0,0,0,0,0,1,59.3392826,18.0623133,1.2 km
Högalidsgatan 48C,5800000,2607.0,2023-03-21,61.0,2.0,1,1,0,0,0,0,0,0,1,0,59.3183732,18.0345545,3.4 km
Tegeluddsvägen 30,2650000,1324.0,2023-03-21,26.0,1.0,1,0,0,1,1,0,0,0,0,0,59.347702,18.1057749,3.9 km
Dalagatan 76A,3865000,2359.0,2023-03-21,32.0,1.0,0,0,0,1,0,0,0,0,0,1,59.3448329,18.0433343,1.8 km
Essingestråket 19,2900000,1311.0,2023-03-21,35.0,2.0,0,0,0,1,0,1,0,0,0,0,59.31989959999999,17.9878916,5.1 km
Dalagatan 8,5465000,2661.0,2023-03-21,51.0,2.0,1,0,0,1,0,0,0,0,0,1,59.33673950000001,18.0508455,0.8 km
Tjustgatan 5,5430000,2030.0,2023-03-21,57.0,2.0,1,0,0,1,0,0,0,0,1,0,59.31187689999999,18.0710296,2.7 km
Lottens Gata 10,2900000,2302.0,2023-03-21,32.0,1.0,1,0,0,0,0,0,0,0,1,0,59.3115444,18.0976856,3.9 km
Nybrogatan 81,7100000,2679.0,2023-03-21,58.0,2.0,1,0,0,1,0,0,0,1,0,0,59.3414807,18.0824402,2.1 km
Furusundsgatan 13,5635000,2545.0,2023-03-21,56.0,2.0,1,0,0,1,0,0,0,1,0,0,59.3469914,18.0986143,3.4 km
Rålambsvägen 54,2420000,1536.0,2023-03-21,23.5,1.0,0,0,0,0,0,1,0,0,0,0,59.3304001,18.0032245,3.7 km
Industrigatan 14,6950000,4287.0,2023-03-21,74.0,3.0,1,0,0,1,0,1,0,0,0,0,59.3374987,18.0290777,2.1 km
Malmskillnadsgatan 60B,6835000,3675.0,2023-03-21,61.0,3.0,0,0,0,1,0,0,1,0,0,0,59.33727460000001,18.0650955,0.9 km
Frödingsvägen 9,3300000,1939.0,2023-03-21,34.0,1.5,0,0,0,0,0,1,0,0,0,0,59.330566,18.0031692,3.7 km
Gästrikegatan 7A,6040000,2928.0,2023-03-21,48.0,2.0,0,0,0,1,0,0,0,0,0,1,59.34092140000001,18.0394639,1.7 km
Teknologgatan 9A,14500000,5109.0,2023-03-21,93.0,4.0,1,0,0,1,0,0,0,0,0,1,59.33973559999999,18.0528835,1.1 km
Roslagsgatan 19B,3850000,909.0,2023-03-21,31.0,1.0,0,0,0,0,0,0,0,0,0,1,59.3468664,18.0587511,2.2 km
Repslagargatan 8,5550000,3907.0,2023-03-21,60.0,2.0,1,0,0,1,0,0,0,0,1,0,59.31780109999999,18.0700434,1.9 km
Hagaesplanaden 63,7550000,5048.0,2023-03-21,75.5,3.0,1,0,0,1,0,0,0,0,0,1,59.34854470000001,18.0348451,2.8 km
Gävlegatan 36B,4400000,2293.0,2023-03-21,32.0,1.5,1,0,0,1,0,0,0,0,0,1,59.3481732,18.0326672,2.6 km
Bondegatan 63,6250000,3291.0,2023-03-21,72.0,2.5,1,0,0,0,0,0,0,0,1,0,59.31362110000001,18.0919586,3.4 km
Lilla Bantorget 25,11400000,5558.0,2023-03-21,111.0,5.0,1,0,0,1,0,0,0,0,0,1,59.3353965,18.0514008,0.7 km
Siargatan 17,4600000,3009.0,2023-03-21,50.0,2.0,1,0,0,1,0,0,0,0,1,0,59.3117436,18.0692009,2.7 km
Norrtullsgatan 38,2900000,1673.0,2023-03-21,29.0,1.0,1,0,0,1,0,0,0,0,0,1,59.3496828,18.0448089,2.3 km
Gotlandsgatan 74,2995000,2073.0,2023-03-21,28.0,1.0,1,0,0,0,0,0,0,0,1,0,59.31030000000001,18.0828489,3.2 km
Tomtebogatan 39,3350000,2269.0,2023-03-21,36.0,2.0,0,0,0,0,0,0,0,0,0,1,59.3417875,18.0288403,2.3 km
Anders Reimers väg 12,6250000,4054.0,2023-03-21,60.0,3.0,0,0,0,1,0,0,0,0,1,0,59.3193566,18.0254144,4.0 km
Fredhällsgatan 9,4105000,2617.0,2023-03-21,40.0,2.0,0,0,0,1,0,1,0,0,0,0,59.3304299,18.0017911,3.8 km
Heleneborgsgatan 9,17600000,5826.0,2023-03-21,158.0,4.0,1,0,0,1,0,0,0,0,1,0,59.31904829999999,18.0375499,3.2 km
Hornsgatan 4,11650000,4142.0,2023-03-21,111.0,4.0,0,0,0,0,0,0,0,0,1,0,59.31997430000001,18.0698682,1.7 km
Kungsbro strand 19,4515000,3658.0,2023-03-21,41.0,2.0,1,0,0,1,0,1,0,0,0,0,59.3304299,18.0507425,0.7 km
Primusgatan 74,7500000,4671.0,2023-03-20,80.5,3.0,1,0,0,1,0,1,0,0,0,0,59.322803,18.0025422,4.1 km
Rålambsvägen 27,4600000,1960.0,2023-03-20,54.0,2.0,1,0,0,1,0,1,0,0,0,0,59.3282357,18.0119217,3.3 km
Breitenfeldsgatan 3,4750000,2382.0,2023-03-20,37.0,2.0,0,0,0,1,0,0,0,1,0,0,59.33885180000001,18.0946284,2.7 km
Anna Steckséns Gata 15,5100000,2787.0,2023-03-20,45.0,2.0,1,0,1,1,0,0,0,0,0,1,59.3484803,18.0342854,2.7 km
Hagagatan 1,4350000,3286.0,2023-03-20,47.0,1.5,1,0,0,0,0,0,0,0,0,1,59.3440171,18.0516582,1.6 km
Grev Turegatan 8A,9450000,1909.0,2023-03-20,58.0,2.0,0,0,0,0,0,0,0,1,0,0,59.3353396,18.075136,1.1 km
Kungsgatan 90,6750000,3236.0,2023-03-20,69.0,2.5,1,0,0,0,0,1,0,0,0,0,59.3314775,18.0471372,0.9 km
Alströmergatan 32G,3600000,2356.0,2023-03-20,39.0,1.0,1,0,0,1,0,1,0,0,0,0,59.3375084,18.0261192,2.4 km
Polhemsgatan 18,4000000,2785.0,2023-03-20,45.0,1.0,1,0,0,0,0,1,0,0,0,0,59.32932549999999,18.0362213,1.7 km
Åsögatan 176,2650000,1257.0,2023-03-20,22.0,1.0,1,0,0,0,0,0,0,0,1,0,59.3144773,18.0872848,3.0 km
Fridhemsgatan 14A,4400000,2660.0,2023-03-20,44.0,2.0,1,0,0,0,0,1,0,0,0,0,59.33094149999999,18.0278413,2.2 km
Sankt eriksgatan 25B,4000000,1837.0,2023-03-20,42.0,2.0,1,0,0,0,0,1,0,0,0,0,59.3317273,18.0305875,1.9 km
Upplandsgatan 15,18700000,6141.0,2023-03-20,145.0,4.0,1,0,0,0,0,0,0,0,0,1,59.3379241,18.0530694,0.8 km
Junohällsvägen 8,3125000,2840.0,2023-03-20,40.0,2.0,0,0,0,0,0,1,0,0,0,0,59.32524600000001,17.9898161,5.0 km
Tavastgatan 13,3000000,2647.0,2023-03-20,32.0,1.0,1,0,0,0,0,0,0,0,1,0,59.3198818,18.0630139,1.8 km
Runiusgatan 9,3925000,2363.0,2023-03-19,55.0,2.0,1,0,0,0,0,1,0,0,0,0,59.3292966,18.0083232,3.5 km
Ulriksborgsgatan 16,6000000,3152.0,2023-03-19,64.5,2.0,1,0,0,1,0,1,0,0,0,0,59.333996,18.0177933,3.0 km
Brännkyrkagatan 42,9900000,5957.0,2023-03-19,90.0,3.0,1,0,0,0,0,0,0,0,1,0,59.3194199,18.0610734,1.9 km
Bondegatan 45,2600000,1441.0,2023-03-19,22.0,1.0,1,0,0,0,0,0,0,0,1,0,59.31401700000001,18.0870766,3.1 km
Åsögatan 196,3550000,2526.0,2023-03-19,38.0,2.0,1,0,0,0,0,0,0,0,1,0,59.31433,18.0923656,3.3 km
Ängskärsgatan 6,3830000,2208.0,2023-03-18,35.0,1.5,1,0,0,1,1,0,0,0,0,0,59.3426432,18.0971468,3.1 km
Vidargatan 4,21600000,5744.0,2023-03-18,161.0,5.0,1,0,0,1,0,0,0,0,0,1,59.3441906,18.0487004,1.6 km
Sågargatan 17,3500000,2341.0,2023-03-18,28.0,1.0,1,0,0,1,0,0,0,0,1,0,59.3139545,18.0914801,3.3 km
Grev Turegatan 71,17600000,6548.0,2023-03-18,126.0,5.0,1,0,0,1,0,0,0,1,0,0,59.34199339999999,18.0803565,1.9 km
Tideliusgatan 61,5940000,2994.0,2023-03-18,64.0,2.0,1,1,0,1,0,0,0,0,1,0,59.3100434,18.0650671,3.0 km
Rindögatan 48,3125000,2129.0,2023-03-18,31.0,1.5,1,0,0,1,1,0,0,0,0,0,59.3457356,18.1008243,3.5 km
Lill-Jans plan 4,7300000,1800.0,2023-03-18,54.0,2.0,0,0,0,0,0,0,0,1,0,0,59.3443038,18.0734098,2.0 km
Odengatan 10,12620000,4913.0,2023-03-18,93.0,4.0,1,0,0,1,0,0,0,1,0,0,59.34641459999999,18.0644762,2.2 km
Södermannagatan 18,11700000,2630.0,2023-03-18,104.0,3.0,1,0,0,0,0,0,0,0,1,0,59.3138658,18.0800307,2.8 km
Birkagatan 24,12700000,4734.0,2023-03-18,93.0,3.0,1,0,0,1,0,0,0,0,0,1,59.34078419999999,18.0353784,1.9 km
Sysslomansgatan 26,3500000,2501.0,2023-03-18,36.0,2.0,1,0,0,1,0,1,0,0,0,0,59.33076810000001,18.0240446,2.4 km
Krångedevägen 21,3325000,3524.0,2023-03-17,44.0,2.0,0,0,0,0,1,0,0,0,0,0,59.3528037,18.0935869,4.0 km
Drottningholmsvägen 64,6600000,3173.0,2023-03-17,71.5,3.0,1,0,0,1,0,1,0,0,0,0,59.33198699999999,18.0210305,2.5 km
Igeldammsgatan 12,4000000,2713.0,2023-03-17,46.0,2.0,1,0,0,0,0,1,0,0,0,0,59.33628059999999,18.0255678,2.2 km
Alströmergatan 32 F,3000000,1534.0,2023-03-17,28.0,1.0,0,0,0,0,0,1,0,0,0,0,59.3373982,18.0260667,2.4 km
Völundsgatan 3,3800000,2406.0,2023-03-17,36.0,1.5,1,0,0,0,0,0,0,0,0,1,59.33789640000001,18.0381022,1.6 km
Karlbergsvägen 70B,5500000,3228.0,2023-03-17,57.0,2.0,1,0,0,0,0,0,0,0,0,1,59.3426592,18.0306813,2.3 km
Nybrogatan 50,5100000,814.0,2023-03-17,37.0,2.0,1,0,0,0,0,0,0,1,0,0,59.3391445,18.0810138,1.8 km
Thorildsvägen 5,10800000,7383.0,2023-03-17,121.5,4.0,1,0,0,1,0,1,0,0,0,0,59.33246299999999,18.0164509,2.8 km
Bondegatan 1A,7740000,1612.0,2023-03-17,77.0,3.0,1,0,0,0,0,0,0,0,1,0,59.3123941,18.074792,2.7 km
Essingestråket 29,2795000,2708.0,2023-03-17,40.0,2.0,0,0,0,1,0,1,0,0,0,0,59.32015850000001,17.9855533,5.3 km
Bergsundsgatan 14,3425000,3252.0,2023-03-17,37.0,2.0,1,0,0,1,0,0,0,0,1,0,59.31703150000001,18.0286527,3.8 km
Ragvaldsgatan 21,16500000,5392.0,2023-03-17,148.0,4.0,1,0,0,1,0,0,0,0,1,0,59.3175822,18.0688392,1.9 km
Norra Stationsgatan 64B,9750000,5437.0,2023-03-17,93.5,4.0,1,0,0,1,0,0,0,0,0,1,59.3480235,18.037674,2.4 km
Folkungagatan 78A,6700000,4267.0,2023-03-17,68.0,3.0,1,1,0,0,0,0,0,0,1,0,59.3145186,18.0787866,2.7 km
Dalagatan 86 E,3700000,2450.0,2023-03-17,39.0,1.0,1,0,0,0,0,0,0,0,0,1,59.3464409,18.0419166,2.0 km
Essinge Brogata 18,6000000,4865.0,2023-03-17,78.5,3.5,1,0,0,1,0,1,0,0,0,0,59.3251751,18.0050947,3.8 km
Teknologgatan 7 C,5995000,3461.0,2023-03-17,59.0,2.0,0,0,0,0,0,0,0,0,0,1,59.33934670000001,18.0529507,1.0 km
Floragatan 5,5250000,1628.0,2023-03-17,40.0,2.0,1,0,0,0,0,0,0,1,0,0,59.3418654,18.0745131,1.8 km
Adlerbethsgatan 17,3225000,1939.0,2023-03-17,34.0,1.5,0,0,0,0,0,1,0,0,0,0,59.33103980000001,18.0051148,3.5 km
Sankt Eriksgatan 24,4700000,1337.0,2023-03-17,55.0,2.0,1,0,0,1,0,1,0,0,0,0,59.3317683,18.031246,1.9 km
Igeldammsgatan 22E,6450000,3834.0,2023-03-17,54.0,2.0,1,0,0,1,0,1,0,0,0,0,59.3373673,18.0243436,2.3 km
Kungstensgatan 65,12500000,2591.0,2023-03-17,100.0,4.5,1,0,0,1,0,0,0,0,0,1,59.3391524,18.0494157,1.1 km
Luxgatan 7,3700000,2884.0,2023-03-17,46.0,2.5,1,0,0,1,0,1,0,0,0,0,59.3243204,18.0086907,3.8 km
Emmy Rappes gata 3,3650000,2200.0,2023-03-17,30.0,1.0,1,0,0,1,0,0,0,0,0,1,59.34836519999999,18.0332389,2.7 km
Birger Sjöbergs Väg 3,7425000,3947.0,2023-03-17,74.0,3.0,1,0,0,1,0,1,0,0,0,0,59.3315716,17.9988891,3.9 km
Bergsgatan 49,3100000,1540.0,2023-03-17,31.0,1.0,1,0,0,0,0,1,0,0,0,0,59.3305398,18.0374299,1.5 km
Högbergsgatan 76C,8200000,4712.0,2023-03-17,94.0,3.5,1,0,0,1,0,0,0,0,1,0,59.31510460000001,18.0596633,2.6 km
Frejgatan 56,11150000,3833.0,2023-03-17,110.0,4.0,1,0,0,1,0,0,0,0,0,1,59.3437565,18.0423608,1.8 km
Falugatan 5,8175000,3910.0,2023-03-17,74.0,3.0,1,0,0,1,0,0,0,0,0,1,59.3431766,18.0374333,2.2 km
Skånegatan 80,4550000,1818.0,2023-03-17,46.0,2.0,1,0,0,0,0,0,0,0,1,0,59.3121178,18.0797361,3.0 km
Torbjörn Klockares gata 21,5300000,2240.0,2023-03-17,58.0,2.0,0,0,0,0,0,0,0,0,0,1,59.3452745,18.0355358,2.3 km
Rindögatan 7,5450000,3594.0,2023-03-17,55.0,2.0,1,0,0,1,0,0,0,1,0,0,59.3476812,18.0947153,3.2 km
Hantverkargatan 85,10100000,5617.0,2023-03-17,104.5,4.0,1,0,0,1,0,1,0,0,0,0,59.3312912,18.0292842,2.1 km
David Bagares gata 14,6700000,1524.0,2023-03-17,62.0,2.0,0,0,0,0,0,0,1,0,0,0,59.3372922,18.0678695,1.0 km
Bondegatan 72 B,6825000,3818.0,2023-03-16,71.0,4.0,1,0,0,0,0,0,0,0,1,0,59.3138387,18.0885014,3.2 km
Bellmansgatan 23 A,9100000,3522.0,2023-03-16,80.0,4.0,0,0,0,1,0,0,0,0,1,0,59.3173461,18.0667691,2.0 km
Oxenstiernsgatan 35,3320000,2245.0,2023-03-16,40.0,2.0,1,1,0,0,0,0,0,1,0,0,59.33723399999999,18.1019915,3.1 km
Furusundsgatan 11,3800000,2355.0,2023-03-16,34.0,2.0,1,0,0,1,1,0,0,0,0,0,59.34726389999999,18.0980116,3.5 km
Karlbergsvägen 87A,3500000,1911.0,2023-03-16,33.0,1.0,1,0,0,0,0,0,0,0,0,1,59.3430608,18.0276505,2.4 km
Robert Almströmsgatan 9A,5650000,2602.0,2023-03-16,56.0,2.0,1,0,0,0,0,0,0,0,0,1,59.33930879999999,18.0333728,1.9 km
Kristinebergsvägen 7,3600000,2042.0,2023-03-16,37.5,1.5,0,0,0,0,0,1,0,0,0,0,59.33263159999999,18.0140434,3.0 km
Bergsgatan 51,5495000,1491.0,2023-03-16,55.0,2.0,1,0,0,0,0,1,0,0,0,0,59.3306418,18.0371054,1.5 km
Sankt eriksgatan 4,2600000,1488.0,2023-03-16,23.0,1.0,1,0,0,0,0,1,0,0,0,0,59.32918429999999,18.0292233,2.2 km
Västmannagatan 86,3300000,1481.0,2023-03-16,29.0,1.0,1,0,0,0,0,0,0,0,0,1,59.3455902,18.0442187,1.8 km
John Bergs Plan 7,3850000,2898.0,2023-03-16,38.0,3.0,1,0,0,1,0,1,0,0,0,0,59.3369168,18.0225279,2.4 km
Odengatan 71,12500000,6596.0,2023-03-16,115.0,4.0,1,0,0,1,0,0,0,0,0,1,59.34253169999999,18.0508537,1.4 km
Karlavägen 78,33000000,9686.0,2023-03-16,170.0,4.0,1,0,0,1,0,0,0,1,0,0,59.33777629999999,18.0885485,2.3 km
Sankt Eriksgatan 19,3550000,1139.0,2023-03-16,34.0,1.0,1,0,0,0,0,1,0,0,0,0,59.33075220000001,18.0301997,2.0 km
Lehusens gränd 2,6500000,3755.0,2023-03-16,73.0,3.0,1,0,0,1,0,0,0,0,1,0,59.3121316,18.0602888,2.9 km
Ola Hanssonsgatan 5,3650000,2462.0,2023-03-16,37.0,2.0,0,0,0,1,0,1,0,0,0,0,59.3338386,18.0002934,3.8 km
Rutger Fuchsgatan 9,3020000,2158.0,2023-03-16,32.0,1.5,1,0,0,0,0,0,0,0,1,0,59.3068589,18.0784381,3.4 km
Birger Jarlsgatan 104A,2850000,1524.0,2023-03-16,21.0,1.0,1,0,0,0,0,0,0,1,0,0,59.3479131,18.0619993,2.4 km
Lundagatan 42B,3650000,2062.0,2023-03-16,40.5,2.0,1,0,0,0,0,0,0,0,1,0,59.3187223,18.0447489,3.0 km
Kristinebergsvägen 40,5950000,3341.0,2023-03-16,71.0,3.0,1,0,0,1,0,1,0,0,0,0,59.33351589999999,18.0129677,3.0 km
Gotlandsgatan 37,5110000,4678.0,2023-03-16,62.0,3.0,1,0,0,1,0,0,0,0,1,0,59.3099046,18.0765214,3.0 km
Primusgatan 50,3400000,3067.0,2023-03-16,46.0,2.0,1,1,0,0,0,1,0,0,0,0,59.3237877,18.0010521,4.1 km
Pontonjärgatan 34,12550000,4689.0,2023-03-16,107.0,3.5,1,1,0,1,0,1,0,0,0,0,59.3298936,18.0287196,2.2 km
Kapellgränd 6B,7100000,3313.0,2023-03-16,59.0,2.0,1,0,0,0,0,0,0,0,1,0,59.31585339999999,18.0735895,2.4 km
Furusundsgatan 8,2800000,1381.0,2023-03-16,26.0,1.0,1,0,0,1,1,0,0,0,0,0,59.3475462,18.0964689,3.2 km
Fridhemsgatan 15,7100000,4205.0,2023-03-16,80.0,3.0,1,0,0,1,0,1,0,0,0,0,59.3314023,18.0274578,2.2 km
Östermalmstorg 5,14400000,4577.0,2023-03-16,101.0,4.0,1,0,0,0,0,0,0,1,0,0,59.33584210000001,18.0792176,1.5 km
Ekhagsvägen 2,4250000,2512.0,2023-03-16,64.0,2.5,0,0,0,0,1,0,0,0,0,0,59.3710033,18.0549323,5.4 km
Ringvägen 112,8000000,3482.0,2023-03-16,84.0,3.0,1,0,0,0,0,0,0,0,1,0,59.3079092,18.0794658,3.3 km
Skeppargatan 5,25000000,9230.0,2023-03-16,169.0,5.0,0,0,0,0,0,0,0,1,0,0,59.3323516,18.0815402,1.6 km
Reimersholmsgatan 79,9800000,7043.0,2023-03-16,104.5,4.0,1,0,0,1,0,0,0,0,1,0,59.3174568,18.0177652,4.4 km
Karlsviksgatan 10,6750000,3046.0,2023-03-16,63.0,2.0,1,0,0,1,0,1,0,0,0,0,59.3301676,18.0289213,2.2 km
Wivalliusgatan 30,5495000,4211.0,2023-03-16,70.5,3.0,0,1,0,0,0,1,0,0,0,0,59.3260203,18.0135577,3.4 km
Harry Martinsons gata 10,4500000,2864.0,2023-03-16,55.5,2.0,1,0,0,1,0,1,0,0,0,0,59.3399692,18.0072478,3.5 km
Skeppargatan 52,11100000,3792.0,2023-03-15,81.0,3.0,1,0,0,1,0,0,0,1,0,0,59.3369624,18.0855063,2.0 km
Furusundsgatan 14,5770000,3261.0,2023-03-15,59.0,3.0,1,0,0,1,0,0,0,1,0,0,59.346574,18.0983049,3.4 km
Birkagatan 31,10050000,3439.0,2023-03-15,84.0,3.0,1,0,0,1,0,0,0,0,0,1,59.3417557,18.0355765,2.0 km
Tomtebogatan 32A,6380000,3341.0,2023-03-15,57.0,2.0,1,0,0,1,0,0,0,0,0,1,59.3420665,18.0299352,2.2 km
Åsögatan 168,9950000,5251.0,2023-03-15,97.0,4.0,1,0,0,1,0,0,0,0,1,0,59.31424740000001,18.0852571,2.9 km
Ölandsgatan 49C,5000000,2311.0,2023-03-15,58.0,2.0,0,0,0,0,0,0,0,0,1,0,59.3090383,18.0775153,3.1 km
Surbrunnsgatan 5,3250000,996.0,2023-03-15,27.0,1.0,1,0,0,0,0,0,0,1,0,0,59.347034,18.0643732,2.3 km
Majorsgatan 4,5210000,276.0,2023-03-15,39.0,2.5,1,0,0,0,0,0,0,1,0,0,59.33649740000001,18.0778733,1.4 km
Karlavägen 52,8500000,1454.0,2023-03-15,71.0,3.0,1,0,0,0,0,0,0,1,0,0,59.3392746,18.0813485,1.8 km
Bråvallagatan 3,4550000,2638.0,2023-03-15,42.0,2.0,1,0,0,0,0,0,0,0,0,1,59.33850260000001,18.0342428,1.8 km
Brantingsgatan 45,8800000,4048.0,2023-03-15,80.7,3.0,1,0,0,1,1,0,0,0,0,0,59.3448413,18.0991113,3.3 km
Norrtullsgatan 30,4500000,2538.0,2023-03-15,44.0,2.0,1,0,0,1,0,0,0,0,0,1,59.3488067,18.0457507,2.1 km
Metargatan 7,7550000,4378.0,2023-03-15,70.0,3.0,1,0,0,1,0,0,0,0,1,0,59.30842320000001,18.0849122,3.5 km
Hagagatan 17 N,5850000,3421.0,2023-03-15,67.0,2.0,1,0,0,0,0,0,0,0,0,1,59.3451443,18.0513543,1.8 km
Sysslomansgatan 14,12700000,1475.0,2023-03-15,140.0,4.0,1,0,0,1,0,1,0,0,0,0,59.3313391,18.0254748,2.3 km
Tomtebogatan 42,9625000,3659.0,2023-03-15,89.0,4.0,1,0,0,0,0,0,0,0,0,1,59.34233810000001,18.0281306,2.3 km
Hälsingegatan 18A,7730000,2184.0,2023-03-15,64.0,3.0,1,0,0,1,0,0,0,0,0,1,59.3447618,18.0412842,2.0 km
Rindögatan 9,5200000,3749.0,2023-03-15,54.0,2.0,1,0,0,1,1,0,0,0,0,0,59.34756309999999,18.0948605,3.2 km
Folkungagatan 67,3260000,1110.0,2023-03-15,32.0,1.5,1,0,0,1,0,0,0,0,1,0,59.31493409999999,18.0777679,2.7 km
Roslagsgatan 49,3200000,1649.0,2023-03-15,29.5,1.0,1,0,0,0,0,0,0,0,0,1,59.35002369999999,18.0560032,2.6 km
Idungatan 5,4300000,2333.0,2023-03-15,45.0,2.0,1,0,0,0,0,0,0,0,0,1,59.3479627,18.0476316,2.2 km
Roslagsgatan 62,11350000,2954.0,2023-03-15,97.0,4.0,1,0,0,1,0,0,0,0,0,1,59.3506987,18.0559852,2.7 km
Tjurbergsgatan 38,3740000,2497.0,2023-03-15,41.5,1.5,1,0,0,0,0,0,0,0,1,0,59.3103978,18.0723972,2.8 km
Smedsbacksgatan 7,3700000,2301.0,2023-03-15,36.0,2.0,1,0,0,1,1,0,0,0,0,0,59.3479995,18.0987208,3.4 km
Styrmansgatan 17,27000000,4960.0,2023-03-15,183.0,5.0,0,0,0,0,0,0,0,1,0,0,59.3333208,18.0856966,1.8 km
Fridhemsgatan 10A,4400000,2600.0,2023-03-15,42.0,1.5,1,0,0,1,0,1,0,0,0,0,59.33048569999999,18.0275644,2.3 km
Tideliusgatan 33,7450000,2186.0,2023-03-15,80.0,4.0,1,0,0,1,0,0,0,0,1,0,59.31043549999999,18.0648226,3.0 km
Roslagsgatan 41,7325000,3735.0,2023-03-15,67.0,3.0,0,0,0,0,0,0,0,0,0,1,59.3490463,18.0571624,2.5 km
Sankt Göransgatan 153,2315000,1176.0,2023-03-15,22.5,1.0,1,0,0,0,0,1,0,0,0,0,59.3380237,18.0144012,3.0 km
Lodgatan 1,7495000,2860.0,2023-03-15,71.2,3.0,1,0,0,0,0,0,0,1,0,0,59.3420482,18.0657383,1.6 km
Alströmergatan 32L,4300000,2499.0,2023-03-15,45.0,2.0,0,0,0,0,0,1,0,0,0,0,59.3372385,18.0266434,2.4 km
Valhallavägen 129,3350000,838.0,2023-03-15,25.0,1.0,1,0,0,1,0,0,0,1,0,0,59.3421405,18.0864155,2.4 km
Tjärhovsgatan 22,2100000,2388.0,2023-03-15,19.0,1.0,1,0,0,0,0,0,0,0,1,0,59.3152705,18.0774699,2.6 km
Odengatan 2,11050000,4859.0,2023-03-15,93.0,3.0,1,0,0,1,0,0,0,1,0,0,59.3467338,18.065886,2.3 km
Heleneborgsgatan 7A,4140000,1940.0,2023-03-15,43.0,2.0,1,0,0,0,0,0,0,0,1,0,59.31916379999999,18.0381538,3.2 km
Ölandsgatan 44,4180000,2455.0,2023-03-15,43.0,2.0,1,0,0,0,0,0,0,0,1,0,59.3085513,18.0772041,3.1 km
Vitalisvägen 11,3670000,2126.0,2023-03-15,38.0,2.0,0,0,0,0,0,1,0,0,0,0,59.3300268,18.0058427,3.5 km
Nytorgsgatan 15A,5910000,3675.0,2023-03-15,56.0,2.5,1,0,0,1,0,0,0,0,1,0,59.3165872,18.0813528,2.5 km
Karlbergsvägen 72B,12050000,5113.0,2023-03-15,109.0,4.0,1,0,0,0,0,0,0,0,0,1,59.3429201,18.0302548,2.3 km
Södermannagatan 31,6275000,2250.0,2023-03-15,56.0,2.0,1,0,0,1,0,0,0,0,1,0,59.311686,18.0816277,3.1 km
Magnus Ladulåsgatan 7,4110000,2750.0,2023-03-15,52.0,2.5,1,0,0,0,0,0,0,0,1,0,59.3119391,18.0605455,2.9 km
Rålambsvägen 46,2850000,1820.0,2023-03-15,29.5,1.0,1,0,0,0,0,1,0,0,0,0,59.3299641,18.0045334,3.6 km
Blekingegatan 31 B,3930000,2262.0,2023-03-15,39.0,1.0,0,0,0,1,0,0,0,0,1,0,59.310274,18.0720585,2.9 km
Fatburs brunnsgata 16,9400000,4924.0,2023-03-15,105.0,4.0,1,0,0,1,0,0,0,0,1,0,59.31327580000001,18.064042,2.6 km
Sonja Kovalevskys Gata 3,12300000,5500.0,2023-03-15,111.0,4.0,1,0,0,1,0,0,0,0,0,1,59.3469013,18.034698,2.5 km
Rutger Fuchsgatan 8B,2800000,1031.0,2023-03-15,22.0,1.0,0,0,0,0,0,0,0,0,1,0,59.30700299999999,18.0781006,3.4 km
Emmy rappes gata 3,3500000,2200.0,2023-03-15,31.0,1.5,1,0,0,0,0,0,0,0,0,1,59.34836519999999,18.0332389,2.7 km
Hjalmar Söderbergs väg 10,4550000,3298.0,2023-03-14,53.0,2.0,1,0,0,1,0,1,0,0,0,0,59.3324106,18.0063275,3.3 km
Högalidsgatan 13B,4450000,2150.0,2023-03-14,41.0,2.0,1,0,0,0,0,0,0,0,1,0,59.3179291,18.0329719,3.5 km
Artemisgatan 75,3490000,2272.0,2023-03-14,41.0,2.0,0,0,0,1,1,0,0,0,0,0,59.3565838,18.096007,4.3 km
Högalidsgatan 44B,6800000,3339.0,2023-03-14,57.0,2.0,1,0,0,0,0,0,0,0,1,0,59.3182127,18.0356919,3.4 km
Rindögatan 30,3700000,2581.0,2023-03-14,45.0,2.0,1,0,0,0,0,0,0,1,0,0,59.345586,18.0980498,3.3 km
Ulriksborgsgatan 16,6150000,3649.0,2023-03-14,77.5,3.0,1,0,0,0,0,1,0,0,0,0,59.333996,18.0177933,3.0 km
Ture Nermans gränd 2,3700000,777.0,2023-03-14,38.0,1.5,1,0,0,0,1,0,0,0,0,0,59.329563,18.0302878,2.1 km
Tegelviksgatan 18,3850000,2877.0,2023-03-14,45.0,2.0,1,0,0,1,0,0,0,0,1,0,59.31156319999999,18.0984812,3.9 km
Eyvind Johnsons Gata 7,7040000,4265.0,2023-03-14,92.0,3.5,1,0,0,1,0,1,0,0,0,0,59.3401194,18.0084048,3.4 km
Franzéngatan 74,8300000,4371.0,2023-03-14,92.0,3.0,1,0,0,1,0,1,0,0,0,0,59.33880689999999,18.0051314,3.6 km
Fatburstrappan 16,4300000,4256.0,2023-03-14,62.5,2.0,1,1,0,0,0,0,0,0,1,0,59.3152215,18.0696009,2.2 km
Roslagsgatan 33B,4650000,2436.0,2023-03-14,42.0,2.0,1,0,0,0,0,0,0,0,0,1,59.3484288,18.0577618,2.4 km
Hagaesplanaden 80,7800000,4776.0,2023-03-14,84.0,4.0,1,0,1,1,0,0,0,0,0,1,59.3486554,18.0368854,2.5 km
Sankt Eriksplan 5,10050000,3997.0,2023-03-14,95.0,3.5,1,0,0,1,0,0,0,0,0,1,59.33880920000001,18.0382982,1.6 km
Torsgatan 48 A,18000000,462.0,2023-03-14,159.0,4.5,1,0,0,1,0,0,0,0,0,1,59.34166669999999,18.0377137,1.8 km
Lustgårdsgatan 20,3950000,3423.0,2023-03-14,46.0,2.0,0,0,0,0,0,1,0,0,0,0,59.3371502,18.0122018,3.2 km
Torbjörn klockares gata 23,3875000,2353.0,2023-03-14,36.0,1.5,0,0,0,0,0,0,0,0,0,1,59.3453668,18.0359441,2.3 km
Valhallavägen 46,7025000,4142.0,2023-03-14,73.0,2.0,0,0,0,0,0,0,0,1,0,0,59.34765369999999,18.064271,2.4 km
Älvkarleövägen 8,3100000,3172.0,2023-03-14,44.2,2.0,0,0,0,0,1,0,0,0,0,0,59.35402999999999,18.0959382,4.1 km
Folkungagatan 136A,3350000,1683.0,2023-03-14,31.0,1.0,1,0,0,0,0,0,0,0,1,0,59.3154233,18.0889842,3.0 km
Västmannagatan 13,4700000,3386.0,2023-03-14,35.0,2.0,1,0,0,0,0,0,0,0,0,1,59.33700409999999,18.0519866,0.7 km
Magnus Ladulåsgatan 11,6550000,3861.0,2023-03-14,73.0,3.0,1,0,0,1,0,0,0,0,1,0,59.3119897,18.0610387,2.9 km
Ernst Ahlgrens väg 3,3300000,1939.0,2023-03-14,34.0,2.0,0,0,0,0,0,1,0,0,0,0,59.3308262,18.0048693,3.5 km
Norrbackagatan 26A,7000000,3242.0,2023-03-14,66.0,2.0,1,0,0,1,0,0,0,0,0,1,59.33993629999999,18.0305168,2.1 km
Ängskärsgatan 4,6850000,3493.0,2023-03-14,74.0,3.0,1,0,0,1,0,0,0,1,0,0,59.3427058,18.0967101,3.1 km
Ninni kronbergs gata 16,4350000,3555.0,2023-03-14,46.0,2.0,1,0,0,1,0,0,0,0,0,1,59.3487569,18.0347534,2.8 km
Valhallavägen 22A,3530000,2329.0,2023-03-14,36.0,2.0,1,0,0,0,0,0,0,1,0,0,59.3482578,18.0628926,2.5 km
Kungsholmsgatan 42,5400000,1990.0,2023-03-14,51.0,2.0,0,0,0,0,0,1,0,0,0,0,59.3321838,18.0403507,1.3 km
Smedsbacksgatan 1,3950000,2190.0,2023-03-14,38.0,2.0,1,0,0,1,1,0,0,0,0,0,59.3466171,18.0999424,3.5 km
Sveavägen 97 2,3185000,1512.0,2023-03-14,27.0,1.0,1,0,0,0,0,0,0,0,0,1,59.34572079999999,18.0527355,1.9 km
Brahegatan 37,8575000,1016.0,2023-03-14,59.0,2.0,1,0,0,1,0,0,0,1,0,0,59.3413383,18.0784963,1.9 km
Åsögatan 163,4025000,1184.0,2023-03-14,36.0,1.0,1,0,0,1,0,0,0,0,1,0,59.31445280000001,18.084912,2.9 km
Baltzar von Platens Gata 7 C,5675000,1037.0,2023-03-14,51.0,2.0,1,0,0,0,0,1,0,0,0,0,59.3296733,18.0313793,2.1 km
Atlasgatan 6,11900000,3896.0,2023-03-14,106.0,4.0,0,1,0,1,0,0,0,0,0,1,59.33826999999999,18.0393061,1.5 km
Kungsklippan 11,3920000,3438.0,2023-03-14,45.0,2.0,1,0,0,0,0,1,0,0,0,0,59.3305208,18.0469889,0.9 km
Strindbergsgatan 51,6725000,2770.0,2023-03-14,60.0,3.0,1,0,0,1,1,0,0,0,0,0,59.3413289,18.0952275,3.0 km
Långholmsgatan 18,4610000,2465.0,2023-03-14,43.0,2.0,1,0,0,0,0,0,0,0,1,0,59.3174663,18.0325392,3.6 km
Östgötagatan 19,9450000,5392.0,2023-03-14,82.0,3.0,0,0,0,1,0,0,0,0,1,0,59.31630209999999,18.0757966,2.4 km
Karlavägen 46A,3950000,1341.0,2023-03-14,25.0,1.0,0,0,0,1,0,0,0,1,0,0,59.3395683,18.0798709,1.7 km
Jungfrugatan 19,5200000,1468.0,2023-03-14,44.0,2.0,1,0,0,0,0,0,0,1,0,0,59.33767709999999,18.0823663,1.8 km
Rålambsvägen 16A,6590000,4394.0,2023-03-14,77.5,3.0,1,0,0,1,0,1,0,0,0,0,59.32876590000001,18.0161342,3.0 km
Värtavägen 16,23000000,5334.0,2023-03-14,130.0,4.0,1,0,0,1,0,0,0,1,0,0,59.3392392,18.0936412,2.6 km
Åsögatan 164,6630000,3008.0,2023-03-14,68.0,3.0,1,0,0,1,0,0,0,0,1,0,59.31410760000001,18.0837459,2.9 km
Östermalmsgatan 57,7425000,2834.0,2023-03-14,64.0,3.0,1,0,0,1,0,0,0,1,0,0,59.3418736,18.0783309,1.9 km
Surbrunnsgatan 7,10500000,3664.0,2023-03-14,107.0,3.0,1,1,0,0,0,0,0,1,0,0,59.34693910000001,18.064061,2.3 km
Regeringsgatan 70C,6450000,2853.0,2023-03-13,70.0,2.5,1,0,0,1,0,0,0,1,0,0,59.33683199999999,18.0686438,1.0 km
Rindögatan 4,2660000,1700.0,2023-03-13,22.0,1.5,1,0,0,1,0,0,0,1,0,0,59.3475786,18.0940937,3.2 km
Sysslomansgatan 8,4140000,1920.0,2023-03-13,38.0,2.0,1,0,0,1,0,1,0,0,0,0,59.3313303,18.0263937,2.3 km
Gruvbacken 4,4350000,2631.0,2023-03-13,47.0,1.5,1,0,0,1,0,0,0,0,1,0,59.31377430000001,18.0956128,3.6 km
Valhallavägen 65,4460000,2833.0,2023-03-13,46.0,1.5,1,0,0,1,0,0,0,1,0,0,59.34666679999999,18.0690526,2.4 km
Essingetorget 37,6500000,4277.0,2023-03-13,92.0,3.0,0,0,0,1,0,1,0,0,0,0,59.3203735,17.9886688,5.1 km
Sysslomansgatan 24,2800000,1230.0,2023-03-13,24.0,1.0,1,0,0,1,0,1,0,0,0,0,59.3308815,18.0241341,2.4 km
Lustgårdsgatan 4,6550000,4324.0,2023-03-13,84.0,3.0,1,0,0,1,0,1,0,0,0,0,59.3360444,18.013652,3.1 km
Falugatan 19,6025000,2888.0,2023-03-13,62.0,2.0,0,0,0,0,0,0,0,0,0,1,59.34454919999999,18.0358796,2.2 km
Blekingegatan 16,3900000,2357.0,2023-03-13,45.0,2.0,1,0,0,0,0,0,0,0,1,0,59.3093381,18.0666826,3.0 km
Ludvigsbergsgatan 13,9300000,3496.0,2023-03-13,81.0,3.0,1,0,0,1,0,0,0,0,1,0,59.3196436,18.0554604,2.3 km
Linnégatan 94,4980000,2520.0,2023-03-13,40.0,2.0,1,0,0,0,0,0,0,1,0,0,59.3336738,18.0968593,2.6 km
Ingemarsgatan 7,4550000,2175.0,2023-03-13,35.0,2.0,0,0,0,1,0,0,0,0,0,1,59.3490777,18.0568854,2.5 km
Odengatan 62A,4200000,568.0,2023-03-13,33.0,1.0,0,0,0,1,0,0,0,0,0,1,59.34352500000001,18.0518915,1.6 km
Danderydsgatan 30,16200000,4184.0,2023-03-13,113.0,4.0,1,0,0,1,0,0,0,1,0,0,59.3447749,18.0713904,2.0 km
Hälsingegatan 61,5150000,2501.0,2023-03-13,52.0,1.5,1,0,0,1,0,0,0,0,0,1,59.34829649999999,18.0363521,2.5 km
Linnégatan 39A,9450000,3283.0,2023-03-13,65.0,4.0,0,0,0,0,0,0,0,1,0,0,59.3366832,18.0833282,1.8 km
Smedsbacksgatan 3B,4900000,3211.0,2023-03-12,55.0,3.0,1,0,0,1,0,0,0,1,0,0,59.34724749999999,18.099804,3.7 km
Lilla Erstagatan 6,19700000,8490.0,2023-03-12,191.0,6.5,1,0,0,1,0,0,0,0,1,0,59.3164711,18.0881214,2.9 km
Franzéngatan 52,6995000,3582.0,2023-03-12,79.0,3.0,1,0,0,1,0,1,0,0,0,0,59.3396483,18.0068445,3.5 km
Rindögatan 40,3500000,2739.0,2023-03-12,43.0,2.0,1,0,0,0,1,0,0,0,0,0,59.3451028,18.1001073,3.5 km
Fridhemsgatan 64A (över gården),4900000,3065.0,2023-03-12,48.7,2.0,1,0,0,0,0,1,0,0,0,0,59.33607600000001,18.0325278,2.0 km
Hallandsgatan 32,6050000,3468.0,2023-03-12,66.0,2.0,1,0,0,0,0,0,0,0,1,0,59.3104969,18.068838,3.0 km
Skeppargatan 94,10100000,3241.0,2023-03-12,86.0,3.0,1,0,0,1,1,0,0,0,0,0,59.34192289999999,18.0898691,2.6 km
Furusundsgatan 11,3270000,2355.0,2023-03-11,34.0,2.0,1,0,0,1,0,0,0,1,0,0,59.34726389999999,18.0980116,3.5 km
Nybrogatan 70,3975000,1388.0,2023-03-11,30.0,2.0,1,0,0,0,0,0,0,1,0,0,59.34160319999999,18.0830111,2.1 km
Fridhemsgatan 13,2980000,1443.0,2023-03-11,26.0,1.5,1,0,0,1,0,1,0,0,0,0,59.33128370000001,18.027318,2.2 km
John Ericssonsgatan 11B,7500000,4236.0,2023-03-11,73.0,3.0,1,0,0,1,1,0,0,0,0,0,59.329004,18.037399,1.6 km
Kellgrensgatan 16,4700000,3476.0,2023-03-11,62.0,2.0,1,0,0,1,0,1,0,0,0,0,59.3360444,18.014219,3.0 km
Västmannagatan 18,5100000,2710.0,2023-03-11,45.0,2.0,1,0,0,0,0,0,0,0,0,1,59.3377989,18.0518301,0.8 km
Pontonjärgatan 34,6350000,2989.0,2023-03-11,61.0,2.0,1,0,0,1,0,1,0,0,0,0,59.3298936,18.0287196,2.2 km
Sibyllegatan 9A,7500000,2536.0,2023-03-11,57.0,2.0,0,0,0,1,0,0,0,1,0,0,59.33458599999999,18.0783216,1.4 km
Sankt Eriksgatan 10,4350000,1455.0,2023-03-10,45.0,2.0,0,0,0,0,0,1,0,0,0,0,59.3298515,18.0300411,2.1 km
Roslagsgatan 29,5700000,3845.0,2023-03-10,58.0,2.5,1,0,0,1,0,0,0,0,0,1,59.3480461,18.0581471,2.3 km
Döbelnsgatan 60,5500000,2596.0,2023-03-10,58.0,2.0,1,0,0,0,0,0,0,0,0,1,59.346523,18.0562677,2.1 km
Vanadisvägen 7B ,5500000,2720.0,2023-03-10,60.0,2.0,1,0,0,0,0,0,0,0,0,1,59.3474201,18.0502756,2.1 km
Västgötagatan 17,7100000,3065.0,2023-03-10,86.0,3.0,1,1,0,0,0,0,0,0,1,0,59.3138204,18.0688785,2.4 km
Svedbergsplan 5,3460000,2154.0,2023-03-10,42.0,2.0,1,0,0,1,0,1,0,0,0,0,59.3276065,18.0121778,3.4 km
Sigtunagatan 11,6270000,3490.0,2023-03-10,57.0,2.0,1,0,0,0,0,0,0,0,0,1,59.34171120000001,18.0410966,1.7 km
Tegnérgatan 36,7100000,3112.0,2023-03-10,60.0,2.0,1,0,0,0,0,0,0,0,0,1,59.33781529999999,18.0527744,0.8 km
Fatburs Brunnsgata 32,7250000,4108.0,2023-03-10,81.0,4.0,1,0,0,1,0,0,0,0,1,0,59.31356539999999,18.0668241,2.4 km
Rådmansgatan 74,9800000,2970.0,2023-03-10,91.0,3.0,1,0,0,1,0,0,0,0,0,1,59.3390712,18.05306,0.9 km
Lottens Gata 8,3990000,2878.0,2023-03-10,46.0,2.0,1,0,0,1,0,0,0,0,1,0,59.3114447,18.0975968,3.9 km
Magnus Ladulåsgatan 7,9750000,6491.0,2023-03-10,135.0,5.0,1,0,0,1,0,0,0,0,1,0,59.3119391,18.0605455,2.9 km
Dalagatan 70A,4600000,1479.0,2023-03-10,32.0,1.5,0,0,0,1,0,0,0,0,0,1,59.34440169999999,18.043751,1.8 km
Kungsklippan 11,2460000,2263.0,2023-03-10,24.0,1.0,1,0,0,0,0,1,0,0,0,0,59.3305208,18.0469889,0.9 km
Surbrunnsgatan 16,7050000,3289.0,2023-03-10,66.0,3.0,1,0,0,0,0,0,0,0,0,1,59.346743,18.0621907,2.2 km
Ruddammsbacken 28,8500000,6632.0,2023-03-10,106.0,4.0,1,1,0,1,0,0,0,1,0,0,59.3514853,18.0594288,2.9 km
Långholmsgatan 9D,3950000,2589.0,2023-03-10,36.0,2.0,1,0,0,1,0,0,0,0,1,0,59.3173184,18.0333076,3.6 km
Roslagsgatan 41,3600000,2042.0,2023-03-10,32.0,2.0,0,0,0,0,0,0,0,0,0,1,59.3490463,18.0571624,2.5 km
Torsplan 10,10495000,5379.0,2023-03-10,95.0,3.5,1,0,0,1,0,0,0,0,0,1,59.34574620000001,18.0334033,2.3 km
Sehlstedtsgatan 7,3890000,2150.0,2023-03-10,43.0,2.0,0,0,0,0,1,0,0,0,0,0,59.3427303,18.1117821,4.0 km
Luxgatan 25,4385000,5182.0,2023-03-10,62.0,2.0,1,0,0,1,0,1,0,0,0,0,59.3234738,18.0048477,3.9 km
Flintbacken 18,6450000,4012.0,2023-03-10,77.5,3.0,1,0,0,1,0,0,0,0,1,0,59.3096855,18.0494057,3.7 km
Götgatan 101,3500000,1978.0,2023-03-10,38.0,1.5,1,0,0,0,0,0,0,0,1,0,59.30731340000001,18.0772245,3.2 km
Östermalmsgatan 16,20250000,7116.0,2023-03-10,139.0,5.0,0,0,0,1,0,0,0,1,0,0,59.34498659999999,18.0671598,2.1 km
Östermalmsgatan 49,4200000,2010.0,2023-03-10,31.0,1.0,0,0,0,0,0,0,0,1,0,0,59.3423046,18.0764006,1.9 km
Parkgatan 12 A,4250000,1615.0,2023-03-10,37.0,2.0,0,0,0,1,0,1,0,0,0,0,59.333529,18.0362517,1.6 km
Roslagsgatan 58B,5950000,3532.0,2023-03-10,57.0,2.0,0,0,0,1,0,0,0,0,0,1,59.3504777,18.0565036,2.6 km
Odengatan 71,7020000,4150.0,2023-03-09,70.0,3.0,1,0,0,1,0,0,0,0,0,1,59.34253169999999,18.0508537,1.4 km
Södermannagatan 21,4050000,1975.0,2023-03-09,35.0,2.0,1,0,0,1,0,0,0,0,1,0,59.3127858,18.0810778,2.9 km
Essinge brogata 10,4500000,4181.0,2023-03-09,67.0,2.5,1,0,0,0,0,1,0,0,0,0,59.3251095,18.0066754,3.7 km
Fleminggatan 91,5900000,3115.0,2023-03-09,61.0,3.0,1,0,0,0,0,1,0,0,0,0,59.3346169,18.0303952,1.8 km
Wargentinsgatan 7,4150000,2291.0,2023-03-09,40.0,2.0,1,0,0,0,0,1,0,0,0,0,59.3327824,18.0406854,1.3 km
Hornsgatan 141A,8330000,3838.0,2023-03-09,86.0,3.0,1,0,0,1,0,0,0,0,1,0,59.3147379,18.0351113,3.6 km
Tulegatan 42,4650000,2487.0,2023-03-09,49.0,2.0,1,0,0,1,0,0,0,0,0,1,59.3477457,18.0569602,2.3 km
Orvar Odds Väg 2,3150000,2215.0,2023-03-09,34.0,2.0,1,0,0,0,0,1,0,0,0,0,59.32977469999999,17.9997789,4.0 km
Sandelsgatan 40,4300000,2351.0,2023-03-09,43.0,2.0,1,0,0,1,1,0,0,0,0,0,59.34354270000001,18.093467,3.0 km
Gjörwellsgatan 15,4995000,4931.0,2023-03-09,76.9,3.0,1,0,0,1,0,1,0,0,0,0,59.3289377,18.0193511,2.9 km
Skeppargatan 83,4530000,2483.0,2023-03-09,42.0,2.0,1,0,0,1,1,0,0,0,0,0,59.3433098,18.0904708,2.7 km
Garvargatan 17,11630000,3665.0,2023-03-09,99.0,4.0,0,0,0,0,0,1,0,0,0,0,59.3278771,18.04146,1.5 km
Västmannagatan 71 D,5500000,2396.0,2023-03-09,47.0,2.0,0,0,0,1,0,0,0,0,0,1,59.3434697,18.0446341,1.6 km
Tomtebogatan 18,7325000,3816.0,2023-03-09,68.0,2.0,1,0,0,0,0,0,0,0,0,1,59.3414642,18.0328755,2.1 km
Roslagsgatan 54,10725000,4814.0,2023-03-09,92.0,3.0,1,0,0,1,0,0,0,0,0,1,59.3500197,18.056634,2.6 km
Riddargatan 36A,8650000,1643.0,2023-03-09,72.0,2.0,0,0,0,1,0,0,0,1,0,0,59.3329995,18.0826585,1.6 km
Ringvägen 8,13500000,5343.0,2023-03-09,152.0,5.0,0,0,0,0,0,0,0,0,1,0,59.3176943,18.0499836,2.7 km
Kampementsgatan 8,6900000,4472.0,2023-03-09,87.2,3.0,1,0,0,1,1,0,0,0,0,0,59.34538260000001,18.1025292,3.5 km
Essingestråket 32,2550000,1841.0,2023-03-09,32.0,1.5,0,1,0,0,0,1,0,0,0,0,59.3208951,17.9844525,5.3 km
Ångströmsgatan 9,9000000,4998.0,2023-03-09,92.0,4.0,1,0,0,1,0,1,0,0,0,0,59.33575750000001,18.0385743,1.6 km
Kammakargatan 50,5450000,5514.0,2023-03-09,69.0,3.0,1,0,0,0,0,0,0,0,0,1,59.3375204,18.0554492,0.8 km
Tjärhovsgatan 8A,4700000,1307.0,2023-03-09,48.0,2.0,0,0,0,1,0,0,0,0,1,0,59.3149243,18.0747833,2.4 km
Sankt Paulsgatan 9,10350000,7272.0,2023-03-09,128.5,5.0,1,0,0,1,0,0,0,0,1,0,59.3182549,18.069207,1.9 km
Västmannagatan 77,8215000,3195.0,2023-03-08,68.0,3.0,1,0,0,1,0,0,0,0,0,1,59.34439629999999,18.0447096,1.7 km
Norrtullsgatan 19,7950000,0.0,2023-03-08,60.0,2.0,0,0,0,1,0,0,0,0,0,1,59.3432834,18.0504343,1.5 km
Älvsborgsgatan 3,3495000,2698.0,2023-01-09,36.0,2.0,1,0,0,0,0,0,0,0,1,0,59.309163,18.0734252,3.1 km
Älvsborgsgatan 3A,11000000,5691.0,2023-01-09,106.0,4.0,1,0,0,1,0,0,0,0,1,0,59.30922769999999,18.0734467,3.1 km
John Ericssonsgatan 18,2815000,1013.0,2023-01-07,24.0,1.0,1,0,0,1,0,1,0,0,0,0,59.32949529999999,18.0382068,1.5 km
Torsgatan 70,3800000,2210.0,2023-01-06,31.0,2.0,1,0,0,0,0,0,0,0,0,1,59.34460069999999,18.0351937,2.2 km
Frejgatan 33,8700000,4758.0,2023-01-06,98.0,4.0,1,0,0,1,0,0,0,0,0,1,59.3468848,18.0558523,2.1 km
Tjustgatan 3,3480000,2385.0,2023-01-06,37.0,1.5,1,0,0,1,0,0,0,0,1,0,59.31215160000001,18.0707427,2.7 km
Fatburstrappan 14,4650000,4256.0,2023-01-06,62.5,2.0,1,0,0,1,0,0,0,0,1,0,59.3152488,18.0700162,2.2 km
Rutger Fuchsgatan 2,3000000,1292.0,2023-01-05,30.0,1.0,1,0,0,0,0,0,0,0,1,0,59.30763339999999,18.0786855,3.3 km
Sankt Göransgatan 152,4270000,3154.0,2023-01-05,59.0,2.0,1,0,0,1,0,1,0,0,0,0,59.33802529999999,18.015274,2.9 km
Lindhagensgatan 104B,4400000,3355.0,2023-01-05,63.0,3.0,1,0,0,1,0,1,0,0,0,0,59.33579770000001,18.013157,3.1 km
Artillerigatan 75,4400000,1684.0,2023-01-05,37.0,1.0,1,0,0,0,0,0,0,1,0,0,59.34072320000001,18.0858904,2.3 km
Tullgårdsgatan 14,4660000,3230.0,2023-01-05,55.0,2.0,1,1,0,0,0,0,0,0,1,0,59.3059982,18.0867268,3.8 km
Frejgatan 46B,6720000,2474.0,2023-01-04,64.0,2.5,1,1,0,1,0,0,0,0,0,1,59.34421880000001,18.0444427,1.7 km
Slipgatan 5,3250000,1838.0,2023-01-03,35.0,1.0,1,0,0,1,0,0,0,0,1,0,59.31777619999999,18.0276797,3.9 km
Roslagsgatan 35A,3515000,1920.0,2023-01-03,39.0,1.0,1,0,0,0,0,0,0,0,0,1,59.3484869,18.057186,2.4 km
Tjärhovsgatan 22,2070000,1810.0,2023-01-02,18.0,1.0,1,0,0,0,0,0,0,0,1,0,59.3152705,18.0774699,2.6 km
Lidnersgatan 12B,3200000,3115.0,2023-01-02,39.5,2.0,1,0,0,0,0,1,0,0,0,0,59.33560769999999,17.9995853,4.0 km
Eriksbergsgatan 42,13900000,3547.0,2023-01-02,100.0,3.0,1,0,0,0,0,0,0,1,0,0,59.3418962,18.0659876,1.6 km
Torsplan 8,6350000,4260.0,2023-01-02,60.0,2.0,1,0,0,1,0,0,0,0,0,1,59.3459448,18.0339937,2.3 km
Torsplan 10,13500000,5287.0,2023-01-01,93.0,4.0,1,0,0,1,0,0,0,0,0,1,59.34574620000001,18.0334033,2.3 km
Östermalmsgatan 32,6000000,3355.0,2022-12-30,53.0,2.0,1,0,0,0,0,0,0,1,0,0,59.343242,18.0710628,1.9 km
Drakenbergsgatan 8,6500000,3533.0,2022-12-30,85.0,3.0,1,0,0,1,0,0,0,0,1,0,59.31604050000001,18.0420206,3.2 km
Lindhagensterrassen 19,3350000,1843.0,2022-12-30,39.0,1.0,1,0,0,1,0,1,0,0,0,0,59.3350278,18.0155508,3.0 km
Döbelnsgatan 89,4400000,967.0,2022-12-29,39.0,2.0,1,0,0,0,0,0,0,0,0,1,59.3460875,18.0559062,2.1 km
Lustgårdsgatan 14,3750000,2287.0,2022-12-29,46.0,2.0,1,0,0,1,0,1,0,0,0,0,59.3367707,18.0128276,3.1 km
Katarina bangata 49,4700000,3124.0,2022-12-29,57.0,2.0,1,0,0,0,0,0,0,0,1,0,59.31022470000001,18.0853266,3.4 km
Tegelviksgatan 14,7800000,4101.0,2022-12-29,76.0,3.0,1,0,1,1,0,0,0,0,1,0,59.3115185,18.0984678,3.9 km
Krukmakargatan 61,5400000,2975.0,2022-12-28,49.0,2.0,0,0,0,1,0,0,0,0,1,0,59.3157911,18.0453225,3.0 km
Sonja Kovalevskys Gata 3,5350000,2800.0,2022-12-28,56.0,2.0,1,0,0,1,0,0,0,0,0,1,59.3469013,18.034698,2.5 km
Idungatan 1B,4350000,2151.0,2022-12-28,44.0,2.0,1,0,0,0,0,0,0,0,0,1,59.34817340000001,18.04811,2.2 km
Tulegatan 3,9600000,951.0,2022-12-28,95.0,4.0,1,0,0,1,0,0,0,0,0,1,59.3410337,18.0629319,1.5 km
Torsgatan 27,8500000,3703.0,2022-12-28,83.0,3.0,1,0,0,0,0,0,0,0,0,1,59.3383075,18.039857,1.4 km
Bjurholmsplan 23,3945000,3238.0,2022-12-27,45.0,2.0,1,0,0,1,0,0,0,0,1,0,59.3098152,18.0810402,3.2 km
Birger Jarlsgatan 104A ,2745000,1524.0,2022-12-27,21.0,1.0,1,0,0,0,0,0,0,1,0,0,59.3479131,18.0619993,2.4 km
Jungfrugatan 19,3375000,1068.0,2022-12-26,35.0,1.5,1,0,0,0,0,0,0,1,0,0,59.33767709999999,18.0823663,1.8 km
Kapellgränd 4,21500000,8316.0,2022-12-26,209.0,5.0,1,0,0,1,0,0,0,0,1,0,59.3163675,18.0736041,2.2 km
Liljeholmsbron 8,3820000,2202.0,2022-12-23,42.0,1.0,1,0,0,1,0,0,0,0,1,0,59.3145577,18.0335673,3.9 km
Tegelviksgatan 22,8475000,5432.0,2022-12-23,92.0,4.0,1,0,0,1,0,0,0,0,1,0,59.3115678,18.098484,3.9 km
Norrbackagatan 23,6330000,3634.0,2022-12-23,78.5,3.0,1,0,0,1,0,0,0,0,0,1,59.3430221,18.0311722,2.3 km
Hagaesplanaden 80,3100000,2610.0,2022-12-23,34.5,2.0,1,0,1,0,0,0,0,0,0,1,59.3486554,18.0368854,2.5 km
Heleneborgsgatan 30A,2080000,996.0,2022-12-23,17.0,1.0,1,0,0,1,0,0,0,0,1,0,59.3195684,18.0371996,3.2 km
Thorildsvägen 4,3300000,2051.0,2022-12-23,37.5,1.5,0,0,0,0,0,1,0,0,0,0,59.33276839999999,18.0167202,2.8 km
Torsgatan 56,4625000,2075.0,2022-12-23,43.0,2.0,1,0,0,0,0,0,0,0,0,1,59.34313779999999,18.0364817,2.0 km
Ehrensvärdsgatan 4,4170000,1605.0,2022-12-23,44.0,2.0,1,0,0,0,0,1,0,0,0,0,59.3284032,18.0344293,1.9 km
Fyrverkarbacken 30,3520000,1070.0,2022-12-23,39.5,2.0,1,0,0,0,0,1,0,0,0,0,59.326885,18.0191494,3.1 km
Frejgatan 5 - 3 / 3 tr,10500000,4580.0,2022-12-22,139.0,5.0,0,0,0,1,0,0,0,1,0,0,59.348226,18.0618042,2.4 km
Blecktornsstigen 9,7400000,4658.0,2022-12-22,75.0,3.0,0,0,0,0,0,0,0,0,1,0,59.3077079,18.0857204,3.6 km
Grubbenstorget 2,11500000,8934.0,2022-12-22,124.0,4.0,1,0,0,1,0,1,0,0,0,0,59.33469489999999,18.0424,1.3 km
Torkel Knutssonsgatan 35,5600000,2500.0,2022-12-22,61.0,2.5,1,0,0,0,0,0,0,0,1,0,59.3170814,18.0578631,2.4 km
Grubbensringen 19,8300000,6007.0,2022-12-22,87.5,3.0,1,0,0,0,0,1,0,0,0,0,59.334579,18.0412936,1.4 km
Sveavägen 134,3245000,1988.0,2022-12-21,35.0,1.0,1,0,0,1,0,0,0,0,0,1,59.3462289,18.0545552,2.1 km
Lindhagensterrassen 27,6700000,3088.0,2022-12-21,77.5,3.0,1,0,0,1,0,1,0,0,0,0,59.3348379,18.0159288,2.9 km
Sysslomansgatan 26,2495000,942.0,2022-12-21,24.0,1.0,1,0,0,0,0,1,0,0,0,0,59.33076810000001,18.0240446,2.4 km
Slipgatan 2,4960000,2383.0,2022-12-21,41.0,2.0,1,0,0,1,0,0,0,0,1,0,59.318157,18.0271398,3.9 km
Warfvinges väg 23,6125000,1894.0,2022-12-21,84.0,3.0,1,0,0,1,0,1,0,0,0,0,59.33710720000001,18.0128415,3.1 km
Ringvägen 60,3350000,2754.0,2022-12-21,42.0,1.5,1,0,0,0,0,0,0,0,1,0,59.3086521,18.0632041,3.3 km
Hagaesplanaden 74,5200000,4031.0,2022-12-21,55.0,3.0,1,0,1,1,0,0,0,0,0,1,59.3486365,18.0371827,2.5 km
Kronobergsgatan 21,7775000,2423.0,2022-12-21,78.0,3.0,0,0,0,0,0,1,0,0,0,0,59.3334741,18.0338152,1.7 km
Grubbensringen 19,12800000,9887.0,2022-12-21,144.5,5.0,1,0,0,1,0,1,0,0,0,0,59.334579,18.0412936,1.4 km
Torsgatan 42c,6350000,3049.0,2022-12-21,53.0,2.0,1,0,0,0,0,0,0,0,0,1,59.3410278,18.0386375,1.7 km
Kommendörsgatan 8K,16020000,8234.0,2022-12-21,185.0,5.0,0,1,0,1,0,0,0,1,0,0,59.3388435,18.0777639,1.6 km
Kellgrensgatan 10,6700000,4981.0,2022-12-20,88.0,4.0,1,0,0,1,0,1,0,0,0,0,59.3364349,18.0148709,2.9 km
Chapmansgatan 5,3100000,1297.0,2022-12-20,31.0,1.0,1,0,0,0,0,1,0,0,0,0,59.3287892,18.0326817,2.0 km
Bondegatan 33,3350000,1299.0,2022-12-20,35.0,1.0,1,0,0,0,0,0,0,0,1,0,59.31366019999999,18.084273,3.0 km
Tulegatan 31A,13250000,5048.0,2022-12-20,106.0,4.0,1,0,0,1,0,0,0,0,0,1,59.3445135,18.0598524,1.9 km
Ernst Ahlgrens Väg 7,3600000,2416.0,2022-12-20,44.0,2.0,0,0,0,1,0,1,0,0,0,0,59.33038399999999,18.0046608,3.6 km
Tomtebogatan 12A,6300000,2781.0,2022-12-20,63.0,3.0,0,1,0,0,0,0,0,0,0,1,59.3416598,18.03462,2.0 km
Tavastgatan 28,3650000,1938.0,2022-12-20,36.0,2.0,1,0,0,0,0,0,0,0,1,0,59.3196214,18.0596416,2.0 km
Igeldammsgatan 12,4460000,3000.0,2022-12-20,48.0,2.0,1,0,0,1,0,1,0,0,0,0,59.33628059999999,18.0255678,2.2 km
Karlavägen 20A,21000000,2035.0,2022-12-20,176.0,5.0,1,0,0,1,0,0,0,1,0,0,59.3425957,18.0682779,1.8 km
Hagaesplanaden 74,3850000,3184.0,2022-12-20,44.5,2.0,1,0,1,0,0,0,0,0,0,1,59.3486365,18.0371827,2.5 km
Sankt Eriksgatan 55A,3400000,1725.0,2022-12-20,35.0,1.0,1,0,0,0,0,1,0,0,0,0,59.3360071,18.0330267,1.9 km
Fridhemsgatan 60,6050000,2680.0,2022-12-20,65.0,2.0,1,0,0,1,0,1,0,0,0,0,59.33583549999999,18.0319142,1.9 km
Tjärhovsgatan 52,5400000,2195.0,2022-12-20,61.0,2.0,1,0,0,0,0,0,0,0,1,0,59.31599239999999,18.0844304,2.7 km
Hagaesplanaden 80,4100000,3422.0,2022-12-19,46.5,2.0,1,0,1,1,0,0,0,0,0,1,59.3486554,18.0368854,2.5 km
Varvsgatan 14,7900000,3131.0,2022-12-19,81.0,3.0,1,0,0,1,0,0,0,0,1,0,59.3163364,18.0405474,3.2 km
Bjurholmsgatan 37,4100000,1988.0,2022-12-19,41.0,2.0,1,0,0,0,0,0,0,0,1,0,59.3090522,18.0810146,3.2 km
Torsgatan 25,10400000,4063.0,2022-12-19,96.0,4.0,1,0,0,0,0,0,0,0,0,1,59.338162,18.040099,1.4 km
Tjärhovsgatan 19,7380000,1358.0,2022-12-19,72.0,3.0,1,0,0,1,0,0,0,0,1,0,59.31595830000001,18.0816973,2.6 km
Sankt Göransgatan 153,2250000,1176.0,2022-12-19,22.5,1.0,1,0,0,0,0,1,0,0,0,0,59.3380237,18.0144012,3.0 km
Västmannagatan 67A,2500000,605.0,2022-12-19,16.0,1.0,0,0,0,0,0,0,0,0,0,1,59.3434004,18.0453842,1.6 km
Vulcanusgatan 13,3800000,1861.0,2022-12-18,35.0,2.0,1,0,0,0,0,0,0,0,0,1,59.33885480000001,18.0371652,1.6 km
Riddargatan 21,8500000,3354.0,2022-12-18,70.0,2.0,1,0,0,1,0,0,0,1,0,0,59.33337049999999,18.0828801,1.6 km
Völundsgatan 1,11550000,6421.0,2022-12-17,113.0,3.0,1,1,0,1,0,0,0,0,0,1,59.3378007,18.0378713,1.6 km
Pipersgatan 20,3100000,2754.0,2022-12-17,27.0,1.0,1,0,0,0,0,1,0,0,0,0,59.3309355,18.0462118,1.0 km
Rålambshovsleden 44,12850000,6898.0,2022-12-17,136.0,6.0,1,0,0,1,0,1,0,0,0,0,59.3311082,18.0220497,2.6 km
Adolf Fredriks kyrkogata 3,14300000,6534.0,2022-12-17,129.0,5.0,1,0,0,1,0,0,1,0,0,0,59.33774999999999,18.062623,1.0 km
Katarina Bangata 79,3500000,273.0,2022-12-17,33.0,1.0,1,0,0,0,0,0,0,0,1,0,59.30820359999999,18.090823,3.7 km
Västmannagatan 3,15000000,2842.0,2022-12-17,133.0,5.0,1,0,0,1,0,0,1,0,0,0,59.33580430000001,18.053512,0.6 km
Palmbladsvägen 2,6400000,4791.0,2022-12-17,75.5,3.5,1,0,0,1,0,1,0,0,0,0,59.3285917,18.0062848,3.6 km
David Bagares gata 26A,7025000,2657.0,2022-12-17,71.0,3.5,1,1,0,0,0,0,0,0,1,0,59.3372608,18.0658359,1.0 km
Fleminggatan 28,11000000,4875.0,2022-12-16,117.0,3.0,1,0,0,1,0,1,0,0,0,0,59.3339935,18.0374474,1.4 km
Kungsholmsgatan 46,4400000,1845.0,2022-12-16,43.0,2.0,0,0,0,0,0,1,0,0,0,0,59.33226209999999,18.039893,1.3 km
Roslagsgatan 6,4300000,1491.0,2022-12-16,38.0,2.0,1,0,0,0,0,0,0,0,0,1,59.34493510000001,18.0616629,1.9 km
Upplandsgatan 47,10375000,3551.0,2022-12-16,90.0,3.0,1,0,0,1,0,0,0,0,0,1,59.3414498,18.0494342,1.2 km
Karlsviksgatan 7,6010000,3164.0,2022-12-16,63.0,3.0,1,0,0,1,0,1,0,0,0,0,59.33033719999999,18.0284307,2.2 km
Sankt Göransgatan 153,2200000,1282.0,2022-12-16,24.5,1.0,1,0,0,0,0,1,0,0,0,0,59.3380237,18.0144012,3.0 km
Lars Forssells gata 16,9600000,4649.0,2022-12-16,108.0,5.0,1,0,0,1,0,1,0,0,0,0,59.3379091,18.0055687,3.7 km
Igeldammsgatan 14,3350000,2291.0,2022-12-16,37.0,1.5,1,0,0,0,0,1,0,0,0,0,59.3364165,18.025412,2.2 km
Sonja Kovalevskys Gata 11,4900000,2750.0,2022-12-16,55.0,2.0,1,0,0,1,0,0,0,0,0,1,59.34739889999999,18.0342315,2.6 km
Norrtullsgatan 63,3450000,1885.0,2022-12-16,36.0,2.0,1,0,0,1,0,0,0,0,0,1,59.34894569999999,18.0446583,2.2 km
Bondegatan 80,3875000,3323.0,2022-12-16,50.0,2.0,1,0,0,0,0,0,0,0,1,0,59.3134732,18.0910438,3.3 km
Skeppargatan 20B,11195000,3541.0,2022-12-16,85.0,3.0,0,0,0,0,0,0,0,1,0,0,59.33365180000001,18.0832967,1.6 km
Fleminggatan 45,7000000,2760.0,2022-12-16,72.0,2.0,1,0,0,1,0,1,0,0,0,0,59.33348429999999,18.0391106,1.3 km
Maria Prästgårdsgata 1A,3800000,2166.0,2022-12-16,41.0,1.0,1,0,0,0,0,0,0,0,1,0,59.3165829,18.0673931,2.0 km
Sandåsgatan 4A - Eget gårdshus,10500000,1154.0,2022-12-16,75.0,3.0,0,0,0,0,0,0,0,0,0,1,59.3422941,18.0523185,1.4 km
Samaritgränd 3,3800000,2354.0,2022-12-16,43.0,1.5,1,0,0,0,0,0,0,0,1,0,59.3163972,18.0552042,2.6 km
Tegelviksgatan 26,6420000,4898.0,2022-12-15,81.0,3.0,1,0,0,1,0,0,0,0,1,0,59.3109699,18.0981136,3.9 km
Hagagatan 17 M,6175000,3205.0,2022-12-15,65.0,2.0,1,0,0,1,0,0,0,0,0,1,59.3452948,18.0512959,1.9 km
Bjurholmsplan 23,2550000,1727.0,2022-12-15,24.0,1.0,1,0,0,0,0,0,0,0,1,0,59.3098152,18.0810402,3.2 km
Gävlegatan 26 6tr,4200000,2000.0,2022-12-15,40.0,2.0,1,0,0,1,0,0,0,0,0,1,59.34700350000001,18.0339991,2.5 km
Skeppargatan 11,3960000,1866.0,2022-12-15,32.0,2.0,1,0,0,0,0,0,0,1,0,0,59.3330109,18.0819211,1.6 km
Tegelviksgatan 33,5350000,4299.0,2022-12-15,62.0,2.0,1,0,0,1,0,0,0,0,1,0,59.3121311,18.0991528,3.8 km
Ola Hanssonsgatan 3,2700000,1902.0,2022-12-15,28.0,1.0,0,0,0,1,0,1,0,0,0,0,59.3337118,18.000226,3.7 km
Ingemarsgatan 2,3950000,2387.0,2022-12-15,54.0,1.0,1,0,0,0,0,0,0,0,0,1,59.3496417,18.0581713,2.6 km
Birger Jarlsgatan 103 B,4700000,2112.0,2022-12-15,41.6,2.0,1,0,0,0,0,0,0,0,0,1,59.348001,18.0600582,2.3 km
Grev Turegatan 71,14150000,6606.0,2022-12-15,126.0,6.0,1,0,0,1,0,0,0,1,0,0,59.34199339999999,18.0803565,1.9 km
Nina einhorns gata 8,7595000,4661.0,2022-12-15,84.0,4.0,1,0,0,1,0,0,0,0,0,1,59.34780159999999,18.035247,2.6 km
Lundagatan 36B,2600000,1374.0,2022-12-15,24.5,1.0,1,0,0,0,0,0,0,0,1,0,59.3189787,18.0462903,2.9 km
Hagaesplanaden 76,3475000,2234.0,2022-12-15,35.0,2.0,1,0,0,1,0,0,0,0,0,1,59.3485075,18.0371781,2.5 km
Kristinebergsvägen 1,3600000,2190.0,2022-12-15,41.0,1.5,0,0,0,0,0,1,0,0,0,0,59.3334839,18.0156874,2.9 km
Hornsgatan 107/Drakenbergsgatan 8,3150000,1372.0,2022-12-15,33.0,1.5,1,0,0,1,0,0,0,0,1,0,59.31604050000001,18.0420206,3.2 km
Torbjörn klockares gata 21,5400000,2347.0,2022-12-14,58.0,2.0,0,0,0,0,0,0,0,0,0,1,59.3452745,18.0355358,2.3 km
Frödingsvägen 7,3200000,1847.0,2022-12-14,34.0,1.5,0,0,0,0,0,1,0,0,0,0,59.3306431,18.0032502,3.7 km
Karlbergsvägen 57,8710000,2999.0,2022-12-14,74.0,3.5,1,0,0,1,0,0,0,0,0,1,59.3421603,18.0333433,2.1 km
Bergsgatan 27,5650000,3308.0,2022-12-14,65.0,3.0,1,0,0,0,0,1,0,0,0,0,59.3301078,18.0409287,1.3 km
Västmannagatan 99,12250000,3640.0,2022-12-14,105.0,4.0,1,0,0,1,0,0,0,0,0,1,59.3465771,18.0425372,2.0 km
Sysslomansgatan 24,2600000,1230.0,2022-12-14,24.0,1.0,1,0,0,1,0,1,0,0,0,0,59.3308815,18.0241341,2.4 km
Gävlegatan 36B,4370000,1911.0,2022-12-14,32.0,1.5,1,0,0,1,0,0,0,0,0,1,59.3481732,18.0326672,2.6 km
Västmannagatan 61 A,6200000,2353.0,2022-12-14,58.0,2.0,0,0,0,1,0,0,0,0,0,1,59.34225279999999,18.0461109,1.4 km
Lundagatan 40B,3400000,1782.0,2022-12-14,34.0,2.0,1,0,0,0,0,0,0,0,1,0,59.31875059999999,18.0453513,3.0 km
Bondegatan 24,3000000,1560.0,2022-12-14,27.0,1.0,1,0,0,0,0,0,0,0,1,0,59.312859,18.0796136,2.9 km
Fleminggatan 54,4600000,1175.0,2022-12-14,49.0,2.0,1,0,0,1,0,1,0,0,0,0,59.3348513,18.0307284,1.8 km
Stigbergsgatan 35,7850000,2779.0,2022-12-14,70.0,2.5,1,0,0,0,0,0,0,0,1,0,59.31694979999999,18.0873214,2.8 km
Karlbergsvägen 27C,4250000,1629.0,2022-12-14,39.0,1.5,0,0,0,1,0,0,0,0,0,1,59.34218509999999,18.041769,1.8 km
Norra Agnegatan 36,5110000,1883.0,2022-12-14,44.0,2.0,1,0,0,1,0,1,0,0,0,0,59.3324327,18.0432679,1.1 km
Hagagatan 14,10850000,3504.0,2022-12-14,87.0,3.0,1,0,0,1,0,0,0,0,0,1,59.3451597,18.0521101,1.8 km
Norrbackagatan 25A,3695000,2398.0,2022-12-14,43.0,2.0,1,0,0,0,0,0,0,0,0,1,59.34309629999999,18.030757,2.3 km
Bohusgatan 29A,5830000,3592.0,2022-12-14,66.5,3.0,1,0,0,1,0,0,0,0,1,0,59.30707109999999,18.0814264,3.5 km
Blekingegatan 36,2850000,1177.0,2022-12-14,24.0,1.0,1,0,0,1,0,0,0,0,1,0,59.3103381,18.0742443,2.9 km
Tavastgatan 40,5320000,2897.0,2022-12-14,51.0,2.0,0,0,0,1,0,0,0,0,1,0,59.3195095,18.0578475,2.1 km
Anna Steckséns Gata 15,3900000,2526.0,2022-12-14,41.0,2.0,1,0,0,0,0,0,0,0,0,1,59.3484803,18.0342854,2.7 km
Västgötagränd 1A,5100000,5347.0,2022-12-13,75.5,3.0,1,0,0,0,0,0,0,0,1,0,59.3139755,18.0701224,2.4 km
Hagagatan 30,7900000,3773.0,2022-12-13,69.0,3.0,1,0,0,1,0,0,0,0,0,1,59.346618,18.0510201,2.0 km
Brännerigatan 5,4875000,2822.0,2022-12-13,50.0,2.0,1,0,0,1,0,0,0,0,1,0,59.31063330000001,18.0805225,3.1 km
Sibyllegatan 42,5550000,3245.0,2022-12-13,49.0,2.0,1,0,0,0,0,0,0,1,0,0,59.3402729,18.083663,2.0 km
Herkulesgatan 24,8200000,5159.0,2022-12-13,96.0,3.0,1,0,0,1,0,0,1,0,0,0,59.3300291,18.0636894,0.5 km
Kronobergsgatan 41,3710000,2614.0,2022-12-13,36.0,1.5,1,0,0,0,0,1,0,0,0,0,59.3356545,18.0349908,1.8 km
Kristinehovsgatan 5A,2520000,1903.0,2022-12-13,25.0,1.0,1,0,0,0,0,0,0,0,1,0,59.31829949999999,18.0421312,3.1 km
Karlsviksgatan 6,3400000,1866.0,2022-12-13,29.5,1.0,1,0,0,1,0,1,0,0,0,0,59.32952359999999,18.0283116,2.2 km
Polhemsgatan 11,6900000,4090.0,2022-12-13,67.0,3.0,1,0,0,1,0,1,0,0,0,0,59.32916679999999,18.0354858,1.8 km
Polhemsgatan 28,4350000,1087.0,2022-12-13,39.0,1.5,1,0,0,1,0,1,0,0,0,0,59.3303783,18.0367108,1.6 km
Hälsingegatan 61,5275000,2650.0,2022-12-13,53.0,2.0,1,0,0,1,0,0,0,0,0,1,59.34829649999999,18.0363521,2.5 km
Sankt Eriksgatan 90,4150000,1903.0,2022-12-13,41.0,1.5,1,0,0,0,0,0,0,0,0,1,59.34156549999999,18.0383728,1.8 km
Dalslandsgatan 7,3400000,1762.0,2022-12-13,37.5,2.0,0,0,0,0,0,0,0,0,1,0,59.30921349999999,18.0747648,3.0 km
Karlsviksgatan 7,4000000,2269.0,2022-12-13,42.0,2.0,1,1,0,0,0,1,0,0,0,0,59.33033719999999,18.0284307,2.2 km
Ringvägen 158,2425000,1100.0,2022-12-13,22.0,1.0,1,0,0,0,0,0,0,0,1,0,59.30987409999999,18.087118,3.4 km
Garvar Lundins Gränd 4,4450000,1581.0,2022-12-13,48.0,1.5,1,0,0,0,0,1,0,0,0,0,59.3272104,18.0438078,1.4 km
Drottninggatan 88F/Holländargatan 9A,6800000,3255.0,2022-12-13,57.0,2.0,1,0,0,1,0,0,1,0,0,0,59.3364602,18.0606008,0.8 km
Alströmergatan 32D,2400000,1427.0,2022-12-13,23.0,1.0,0,0,0,0,0,1,0,0,0,0,59.33722239999999,18.0260703,2.4 km
Lorensbergsgatan 5B,4110000,1976.0,2022-12-12,43.0,2.0,1,0,0,0,0,0,0,0,1,0,59.3192653,18.0334597,3.5 km
Alströmergatan 32 M,4310000,2499.0,2022-12-12,45.0,2.0,0,0,0,0,0,1,0,0,0,0,59.3371339,18.0267396,2.3 km
Norr Mälarstrand 84,7300000,3141.0,2022-12-12,67.0,3.0,1,0,0,0,0,1,0,0,0,0,59.32916239999999,18.0280981,2.3 km
Vikingagatan 11,13400000,1798.0,2022-12-12,121.0,4.5,1,0,0,1,0,0,0,0,0,1,59.34120249999999,18.0328633,2.0 km
Frödingsvägen 2,7700000,4228.0,2022-12-12,89.0,3.0,0,0,0,1,0,1,0,0,0,0,59.3312416,18.0031206,3.6 km
Alströmergatan 32S,4620000,2499.0,2022-12-12,45.0,2.0,0,0,0,0,0,1,0,0,0,0,59.3366422,18.026872,2.2 km
Atlasgatan 13,2950000,1200.0,2022-12-12,27.0,1.0,1,0,0,0,0,0,0,0,0,1,59.3382991,18.0375088,1.6 km
Fyrverkarbacken 23,2950000,2575.0,2022-12-12,43.0,2.0,1,0,0,0,0,1,0,0,0,0,59.326451,18.0211687,2.9 km
Bysistorget 6,3870000,1841.0,2022-12-12,43.5,2.0,1,0,0,0,0,0,0,0,1,0,59.3183867,18.0558599,2.3 km
Mosebacke torg 14B,3125000,1379.0,2022-12-12,25.0,1.0,0,0,0,0,0,0,0,0,1,0,59.3173049,18.0741774,2.2 km
Alströmergatan 35,3250000,2053.0,2022-12-12,34.0,1.0,1,0,0,1,0,1,0,0,0,0,59.33549679999999,18.0296582,2.1 km
Fleminggatan 40B,6800000,3727.0,2022-12-12,81.0,3.0,1,0,0,1,0,1,0,0,0,0,59.334498,18.0340322,1.6 km
Ola Hanssonsgatan 6,3260000,2532.0,2022-12-12,37.0,2.0,1,0,0,1,0,1,0,0,0,0,59.33494109999999,18.0014304,3.9 km
Fleminggatan 81,9445000,4423.0,2022-12-12,105.0,4.0,1,0,0,1,0,1,0,0,0,0,59.33425949999999,18.0332168,1.7 km
Runiusgatan 3,5020000,3350.0,2022-12-12,75.9,3.5,1,1,0,0,0,1,0,0,0,0,59.33001689999999,18.0088178,3.4 km
Dalagatan 60,7125000,2149.0,2022-12-12,58.0,2.0,1,0,0,1,0,0,0,0,0,1,59.34323850000001,18.0444033,1.6 km
Didrik Ficks gränd 5 ,3900000,1568.0,2022-12-11,33.0,2.0,0,0,0,0,0,0,0,0,0,0,59.32475230000001,18.0688755,1.1 km
Skolgränd 1,4125000,2420.0,2022-12-11,44.0,2.0,0,0,0,0,0,0,0,0,1,0,59.32030929999999,18.0639177,1.8 km
Kristinehovsgatan 5A,3250000,2242.0,2022-12-11,35.0,2.0,1,0,0,1,0,0,0,0,1,0,59.31829949999999,18.0421312,3.1 km
Fatburs Brunnsgata 12,4500000,3393.0,2022-12-11,61.0,2.0,1,0,0,1,0,0,0,0,1,0,59.3134568,18.0635941,2.6 km
Maria Prästgårdsgata 22,6950000,3538.0,2022-12-10,70.0,2.0,0,0,0,1,0,0,0,0,1,0,59.316177,18.062605,2.3 km
Nybrogatan 75 F,6750000,2467.0,2022-12-10,62.0,3.0,1,0,0,0,0,0,0,1,0,0,59.34059360000001,18.0807404,1.8 km
Kristinehovsgatan 5A,2510000,2156.0,2022-12-10,30.0,1.5,1,0,0,0,0,0,0,0,1,0,59.31829949999999,18.0421312,3.1 km
Frejgatan 18,3925000,1811.0,2022-12-10,39.0,1.5,1,0,0,1,0,0,0,0,0,1,59.3476237,18.0576679,2.3 km
Lundagatan 52,3600000,1839.0,2022-12-10,36.0,2.0,0,0,0,1,0,0,0,0,1,0,59.3181957,18.0430302,3.1 km
Alströmergatan 32A,3160000,1927.0,2022-12-10,35.0,1.5,1,0,0,0,0,1,0,0,0,0,59.33679890000001,18.0260613,2.3 km
Sankt eriksgatan 23,8500000,2224.0,2022-12-10,97.0,3.0,1,0,0,0,0,1,0,0,0,0,59.3313606,18.03048,2.0 km
Sveavägen 133,6000000,3820.0,2022-12-10,72.0,3.0,1,0,0,1,0,0,0,0,0,1,59.34874379999999,18.0506271,2.3 km
Bastugatan 21,22500000,6740.0,2022-12-10,125.0,5.0,1,0,0,1,0,0,0,0,1,0,59.32012169999999,18.0616718,1.9 km
Falugatan 15,3075000,2274.0,2022-12-09,33.0,1.0,0,0,0,0,0,0,0,0,0,1,59.3438087,18.0366502,2.2 km
Rutger Fuchsgatan 8B ,2950000,1525.0,2022-12-09,33.0,1.0,1,0,0,0,0,0,0,0,1,0,59.30700299999999,18.0781006,3.4 km
Magnus Ladulåsgatan 7,5450000,3077.0,2022-12-09,69.0,3.5,1,0,0,1,0,0,0,0,1,0,59.3119391,18.0605455,2.9 km
Tegnérgatan 5A,5275000,2352.0,2022-12-09,53.0,2.0,0,0,0,0,0,0,0,0,0,1,59.34032469999999,18.0644566,1.4 km
Wollmar Yxkullsgatan 52A,3715000,2170.0,2022-12-09,37.0,2.0,1,0,0,1,0,0,0,0,1,0,59.3156863,18.0525308,2.8 km
Hagaesplanaden 76,3475000,2234.0,2022-12-09,35.0,2.0,1,0,1,1,0,0,0,0,0,1,59.3485075,18.0371781,2.5 km
Frejgatan 99,5350000,1869.0,2022-12-09,44.0,2.0,0,0,0,1,0,0,0,0,0,1,59.34327829999999,18.0415054,1.8 km
Bråvallagatan 9 B,4100000,1931.0,2022-12-09,34.0,2.0,1,0,0,0,0,0,0,0,0,1,59.3390849,18.0347196,1.8 km
Franzéngatan 77,8600000,4535.0,2022-12-09,107.5,5.0,1,0,0,1,0,1,0,0,0,0,59.3385573,18.0051895,3.6 km
Sigtunagatan 3A,7500000,2845.0,2022-12-09,63.0,2.0,0,0,0,1,0,0,0,0,0,1,59.341029,18.0413144,1.7 km
Hagaesplanaden 74,4250000,3422.0,2022-12-09,46.5,2.0,1,0,0,1,0,0,0,0,0,1,59.3486365,18.0371827,2.5 km
Möregatan 10,2850000,1646.0,2022-12-09,29.0,1.0,1,0,0,0,0,0,0,0,1,0,59.3115554,18.0698655,2.7 km
Karlbergsvägen 76,8900000,3383.0,2022-12-09,109.0,5.0,1,0,0,1,0,0,0,0,0,1,59.3432914,18.0303586,2.3 km
Sonja Kovalevskys gata 8,6300000,3015.0,2022-12-09,65.0,3.0,1,0,0,1,0,0,0,0,0,1,59.347594,18.0345091,2.6 km
Samaritgränd 3,2720000,1478.0,2022-12-09,27.0,1.0,0,0,0,0,0,0,0,0,1,0,59.3163972,18.0552042,2.6 km
Tomtebogatan 51,2910000,1307.0,2022-12-09,25.0,1.0,1,0,0,0,0,0,0,0,0,1,59.3422678,18.0271045,2.4 km
Ola Hanssonsgatan 6,3065000,2437.0,2022-12-09,37.0,2.0,1,0,0,1,0,1,0,0,0,0,59.33494109999999,18.0014304,3.9 km
Metargatan 9,3325000,2234.0,2022-12-09,33.5,2.0,1,0,0,0,0,0,0,0,1,0,59.30838190000001,18.0855249,3.5 km
Högbergsgatan 67,7380000,765.0,2022-12-09,68.0,2.0,1,0,0,1,0,0,0,0,1,0,59.31567349999999,18.0664715,2.2 km
Timotejgatan 4,2400000,1535.0,2022-12-09,25.0,1.0,0,0,0,0,0,0,0,0,1,0,59.3074,18.0665757,3.3 km
Ehrensvärdsgatan 4,3950000,1605.0,2022-12-09,44.0,2.0,1,0,0,0,0,1,0,0,0,0,59.3284032,18.0344293,1.9 km
